{"longitude": "-2.31655", "police-force": "avon-and-somerset", "police-force-neighbourhood": "avon-and-somerset-AE016", "latitude": "51.2295", "name": "Frome Town"}
{"longitude": "-2.36455", "police-force": "avon-and-somerset", "police-force-neighbourhood": "avon-and-somerset-AE017", "latitude": "51.2684", "name": "Frome Rural North"}
{"longitude": "-2.37177", "police-force": "avon-and-somerset", "police-force-neighbourhood": "avon-and-somerset-AE018", "latitude": "51.1974", "name": "Frome Rural South"}
{"longitude": "-2.609", "police-force": "avon-and-somerset", "police-force-neighbourhood": "avon-and-somerset-AE019", "latitude": "51.1819", "name": "Shepton Mallet Town"}
{"longitude": "-2.5293", "police-force": "avon-and-somerset", "police-force-neighbourhood": "avon-and-somerset-AE020", "latitude": "51.1815", "name": "Shepton Mallet Rural"}
{"longitude": "-2.64517", "police-force": "avon-and-somerset", "police-force-neighbourhood": "avon-and-somerset-AE021", "latitude": "51.2098", "name": "Wells City"}
{"longitude": "-2.66229", "police-force": "avon-and-somerset", "police-force-neighbourhood": "avon-and-somerset-AE022", "latitude": "51.246", "name": "Wells Rural"}
{"longitude": "-2.70333", "police-force": "avon-and-somerset", "police-force-neighbourhood": "avon-and-somerset-AE023", "latitude": "51.146", "name": "Glastonbury Town"}
{"longitude": "-2.71991", "police-force": "avon-and-somerset", "police-force-neighbourhood": "avon-and-somerset-AE024", "latitude": "51.1396", "name": "Street"}
{"longitude": "-2.79367", "police-force": "avon-and-somerset", "police-force-neighbourhood": "avon-and-somerset-AE025", "latitude": "51.0563", "name": "Somerton"}
{"longitude": "-2.85208", "police-force": "avon-and-somerset", "police-force-neighbourhood": "avon-and-somerset-AE026", "latitude": "50.9931", "name": "Martock"}
{"longitude": "-2.7618", "police-force": "avon-and-somerset", "police-force-neighbourhood": "avon-and-somerset-AE027", "latitude": "50.9624", "name": "South Petherton &amp; The Hamdons"}
{"longitude": "-2.39924", "police-force": "avon-and-somerset", "police-force-neighbourhood": "avon-and-somerset-AE028", "latitude": "51.0387", "name": "Wincanton"}
{"longitude": "-2.52156", "police-force": "avon-and-somerset", "police-force-neighbourhood": "avon-and-somerset-AE029", "latitude": "51.0758", "name": "Wincanton Rural North"}
{"longitude": "-2.53048", "police-force": "avon-and-somerset", "police-force-neighbourhood": "avon-and-somerset-AE030", "latitude": "51.0042", "name": "Wincanton Rural South"}
{"longitude": "-2.95163", "police-force": "avon-and-somerset", "police-force-neighbourhood": "avon-and-somerset-AE031", "latitude": "50.8767", "name": "Chard"}
{"longitude": "-2.93916", "police-force": "avon-and-somerset", "police-force-neighbourhood": "avon-and-somerset-AE032", "latitude": "50.8827", "name": "Chard Rural"}
{"longitude": "-2.93965", "police-force": "avon-and-somerset", "police-force-neighbourhood": "avon-and-somerset-AE033", "latitude": "50.9338", "name": "Ilminster"}
{"longitude": "-2.78575", "police-force": "avon-and-somerset", "police-force-neighbourhood": "avon-and-somerset-AE034", "latitude": "50.8761", "name": "Crewkerne"}
{"longitude": "-2.78383", "police-force": "avon-and-somerset", "police-force-neighbourhood": "avon-and-somerset-AE035", "latitude": "50.9012", "name": "Crewkerne Rural"}
{"longitude": "-2.66332", "police-force": "avon-and-somerset", "police-force-neighbourhood": "avon-and-somerset-AE036", "latitude": "50.921", "name": "Yeovil"}
{"longitude": "-2.62993", "police-force": "avon-and-somerset", "police-force-neighbourhood": "avon-and-somerset-AE037", "latitude": "50.9461", "name": "Yeovil Central"}
{"longitude": "-2.60297", "police-force": "avon-and-somerset", "police-force-neighbourhood": "avon-and-somerset-BC173", "latitude": "51.4673", "name": "Cotham"}
{"longitude": "-2.60055", "police-force": "avon-and-somerset", "police-force-neighbourhood": "avon-and-somerset-BC174", "latitude": "51.4759", "name": "Redland"}
{"longitude": "-2.58852", "police-force": "avon-and-somerset", "police-force-neighbourhood": "avon-and-somerset-BC175", "latitude": "51.4809", "name": "Bishopston"}
{"longitude": "-2.59468", "police-force": "avon-and-somerset", "police-force-neighbourhood": "avon-and-somerset-BC190", "latitude": "51.4616", "name": "Kingsdown"}
{"longitude": "-2.60312", "police-force": "avon-and-somerset", "police-force-neighbourhood": "avon-and-somerset-BC191", "latitude": "51.4593", "name": "High Kingsdown"}
{"longitude": "-2.5891", "police-force": "avon-and-somerset", "police-force-neighbourhood": "avon-and-somerset-BC192", "latitude": "51.4563", "name": "Broadmead"}
{"longitude": "-2.59483", "police-force": "avon-and-somerset", "police-force-neighbourhood": "avon-and-somerset-BC193", "latitude": "51.4536", "name": "Old City and Queen Square"}
{"longitude": "-2.6037", "police-force": "avon-and-somerset", "police-force-neighbourhood": "avon-and-somerset-BC194", "latitude": "51.4545", "name": "City Centre and Brandon Hill"}
{"longitude": "-2.61987", "police-force": "avon-and-somerset", "police-force-neighbourhood": "avon-and-somerset-BC195", "latitude": "51.457", "name": "Clifton"}
{"longitude": "-2.61424", "police-force": "avon-and-somerset", "police-force-neighbourhood": "avon-and-somerset-BC196", "latitude": "51.4621", "name": "Clifton East"}
{"longitude": "-2.60467", "police-force": "avon-and-somerset", "police-force-neighbourhood": "avon-and-somerset-BC197", "latitude": "51.45", "name": "Harbourside"}
{"longitude": "-2.60758", "police-force": "avon-and-somerset", "police-force-neighbourhood": "avon-and-somerset-BC198", "latitude": "51.4477", "name": "Docks and Spike Island"}
{"longitude": "-2.52974", "police-force": "avon-and-somerset", "police-force-neighbourhood": "avon-and-somerset-BF160", "latitude": "51.4853", "name": "Frome Vale"}
{"longitude": "-2.53814", "police-force": "avon-and-somerset", "police-force-neighbourhood": "avon-and-somerset-BF161", "latitude": "51.4913", "name": "Broomhill"}
{"longitude": "-2.54869", "police-force": "avon-and-somerset", "police-force-neighbourhood": "avon-and-somerset-BF162", "latitude": "51.4766", "name": "Eastville"}
{"longitude": "-2.52771", "police-force": "avon-and-somerset", "police-force-neighbourhood": "avon-and-somerset-BF163", "latitude": "51.4738", "name": "Hillfields"}
{"longitude": "-2.54045", "police-force": "avon-and-somerset", "police-force-neighbourhood": "avon-and-somerset-BF164", "latitude": "51.4632", "name": "St George West (Speedwell/Whitehall)"}
{"longitude": "-2.5202", "police-force": "avon-and-somerset", "police-force-neighbourhood": "avon-and-somerset-BF165", "latitude": "51.4645", "name": "St George East (Two Mile Hill)"}
{"longitude": "-2.53992", "police-force": "avon-and-somerset", "police-force-neighbourhood": "avon-and-somerset-BF166", "latitude": "51.4569", "name": "St George South West"}
{"longitude": "-2.52966", "police-force": "avon-and-somerset", "police-force-neighbourhood": "avon-and-somerset-BF167", "latitude": "51.4548", "name": "St George South East"}
{"longitude": "-2.61468", "police-force": "avon-and-somerset", "police-force-neighbourhood": "avon-and-somerset-BI104", "latitude": "51.434", "name": "Bedminster"}
{"longitude": "-2.62078", "police-force": "avon-and-somerset", "police-force-neighbourhood": "avon-and-somerset-BI107", "latitude": "51.416", "name": "Bishopsworth"}
{"longitude": "-2.60426", "police-force": "avon-and-somerset", "police-force-neighbourhood": "avon-and-somerset-BI108", "latitude": "51.4145", "name": "Hartcliffe and Headley Park"}
{"longitude": "-2.58071", "police-force": "avon-and-somerset", "police-force-neighbourhood": "avon-and-somerset-BI109", "latitude": "51.4052", "name": "Whitchurch Park"}
{"longitude": "-2.6086", "police-force": "avon-and-somerset", "police-force-neighbourhood": "avon-and-somerset-BI142", "latitude": "51.443", "name": "Southville"}
{"longitude": "-2.57376", "police-force": "avon-and-somerset", "police-force-neighbourhood": "avon-and-somerset-BS132", "latitude": "51.4147", "name": "Hengrove / Whitchurch"}
{"longitude": "-2.54727", "police-force": "avon-and-somerset", "police-force-neighbourhood": "avon-and-somerset-BS133", "latitude": "51.4151", "name": "Stockwood"}
{"longitude": "-2.54688", "police-force": "avon-and-somerset", "police-force-neighbourhood": "avon-and-somerset-BS134", "latitude": "51.4334", "name": "Brislington West"}
{"longitude": "-2.53288", "police-force": "avon-and-somerset", "police-force-neighbourhood": "avon-and-somerset-BS135", "latitude": "51.4404", "name": "Brislington East"}
{"longitude": "-2.56891", "police-force": "avon-and-somerset", "police-force-neighbourhood": "avon-and-somerset-BS140", "latitude": "51.4332", "name": "Knowle (Bristol)"}
{"longitude": "-2.58772", "police-force": "avon-and-somerset", "police-force-neighbourhood": "avon-and-somerset-BS141", "latitude": "51.4246", "name": "Filwood"}
{"longitude": "-2.58269", "police-force": "avon-and-somerset", "police-force-neighbourhood": "avon-and-somerset-BS143", "latitude": "51.4378", "name": "Windmill Hill / Totterdown"}
{"longitude": "-2.58231", "police-force": "avon-and-somerset", "police-force-neighbourhood": "avon-and-somerset-BT110", "latitude": "51.4645", "name": "St Pauls"}
{"longitude": "-2.58057", "police-force": "avon-and-somerset", "police-force-neighbourhood": "avon-and-somerset-BT111", "latitude": "51.4706", "name": "Montpelier and St Werburghs"}
{"longitude": "-2.58453", "police-force": "avon-and-somerset", "police-force-neighbourhood": "avon-and-somerset-BT181", "latitude": "51.45", "name": "Redcliffe and Temple Quay"}
{"longitude": "-2.57204", "police-force": "avon-and-somerset", "police-force-neighbourhood": "avon-and-somerset-BT182", "latitude": "51.451", "name": "The Dings and St Philips Marsh"}
{"longitude": "-2.56223", "police-force": "avon-and-somerset", "police-force-neighbourhood": "avon-and-somerset-BT183", "latitude": "51.4537", "name": "Barton Hill"}
{"longitude": "-2.55866", "police-force": "avon-and-somerset", "police-force-neighbourhood": "avon-and-somerset-BT184", "latitude": "51.4569", "name": "Redfield"}
{"longitude": "-2.55877", "police-force": "avon-and-somerset", "police-force-neighbourhood": "avon-and-somerset-BT185", "latitude": "51.4667", "name": "Easton"}
{"longitude": "-2.57402", "police-force": "avon-and-somerset", "police-force-neighbourhood": "avon-and-somerset-BT186", "latitude": "51.4623", "name": "Trinity"}
{"longitude": "-2.68656", "police-force": "avon-and-somerset", "police-force-neighbourhood": "avon-and-somerset-BU120", "latitude": "51.5121", "name": "Avonmouth and Shirehampton"}
{"longitude": "-2.66296", "police-force": "avon-and-somerset", "police-force-neighbourhood": "avon-and-somerset-BU121", "latitude": "51.5018", "name": "Lawrence Weston"}
{"longitude": "-2.64981", "police-force": "avon-and-somerset", "police-force-neighbourhood": "avon-and-somerset-BU122", "latitude": "51.4915", "name": "Sea Mills"}
{"longitude": "-2.62106", "police-force": "avon-and-somerset", "police-force-neighbourhood": "avon-and-somerset-BU123", "latitude": "51.509", "name": "Henbury and Brentry"}
{"longitude": "-2.55814", "police-force": "avon-and-somerset", "police-force-neighbourhood": "avon-and-somerset-BU151", "latitude": "51.4843", "name": "Lockleaze and Eastgate"}
{"longitude": "-2.61979", "police-force": "avon-and-somerset", "police-force-neighbourhood": "avon-and-somerset-BU152", "latitude": "51.492", "name": "Westbury-on-Trym"}
{"longitude": "-2.60222", "police-force": "avon-and-somerset", "police-force-neighbourhood": "avon-and-somerset-BU153", "latitude": "51.5064", "name": "Southmead"}
{"longitude": "-2.5875", "police-force": "avon-and-somerset", "police-force-neighbourhood": "avon-and-somerset-BU154", "latitude": "51.4939", "name": "Horfield"}
{"longitude": "-2.60384", "police-force": "avon-and-somerset", "police-force-neighbourhood": "avon-and-somerset-BU155", "latitude": "51.484", "name": "Henleaze"}
{"longitude": "-2.63394", "police-force": "avon-and-somerset", "police-force-neighbourhood": "avon-and-somerset-BU170", "latitude": "51.475", "name": "Stoke Bishop"}
{"longitude": "-2.37032", "police-force": "avon-and-somerset", "police-force-neighbourhood": "avon-and-somerset-CS218", "latitude": "51.3847", "name": "Bath City Centre"}
{"longitude": "-2.36483", "police-force": "avon-and-somerset", "police-force-neighbourhood": "avon-and-somerset-CS219", "latitude": "51.4006", "name": "Bath City Outer"}
{"longitude": "-2.35654", "police-force": "avon-and-somerset", "police-force-neighbourhood": "avon-and-somerset-CS220", "latitude": "51.367", "name": "Bath City South"}
{"longitude": "-2.39217", "police-force": "avon-and-somerset", "police-force-neighbourhood": "avon-and-somerset-CS221", "latitude": "51.3758", "name": "Bath City West"}
{"longitude": "-2.48892", "police-force": "avon-and-somerset", "police-force-neighbourhood": "avon-and-somerset-CS222", "latitude": "51.3803", "name": "Keynsham"}
{"longitude": "-2.61642", "police-force": "avon-and-somerset", "police-force-neighbourhood": "avon-and-somerset-CS223", "latitude": "51.3575", "name": "Pensford &amp; Chew Valley"}
{"longitude": "-2.46189", "police-force": "avon-and-somerset", "police-force-neighbourhood": "avon-and-somerset-CS224", "latitude": "51.2893", "name": "Somer Valley"}
{"longitude": "-2.40041", "police-force": "avon-and-somerset", "police-force-neighbourhood": "avon-and-somerset-CS225", "latitude": "51.3416", "name": "Peasedown &amp; Paulton"}
{"longitude": "-2.55872", "police-force": "avon-and-somerset", "police-force-neighbourhood": "avon-and-somerset-CS226", "latitude": "51.3302", "name": "North Mendip"}
{"longitude": "-2.38963", "police-force": "avon-and-somerset", "police-force-neighbourhood": "avon-and-somerset-DC120", "latitude": "51.5336", "name": "Yate"}
{"longitude": "-2.32903", "police-force": "avon-and-somerset", "police-force-neighbourhood": "avon-and-somerset-DC121", "latitude": "51.5377", "name": "Chipping Sodbury and Cotswold Edge"}
{"longitude": "-2.47554", "police-force": "avon-and-somerset", "police-force-neighbourhood": "avon-and-somerset-DC122", "latitude": "51.5269", "name": "Frampton Cotterell"}
{"longitude": "-2.44574", "police-force": "avon-and-somerset", "police-force-neighbourhood": "avon-and-somerset-DC123", "latitude": "51.5958", "name": "Charfield and Ladden Brook"}
{"longitude": "-2.49688", "police-force": "avon-and-somerset", "police-force-neighbourhood": "avon-and-somerset-DC124", "latitude": "51.6029", "name": "Thornbury and Alveston"}
{"longitude": "-2.59647", "police-force": "avon-and-somerset", "police-force-neighbourhood": "avon-and-somerset-DC125", "latitude": "51.5972", "name": "Severn"}
{"longitude": "-2.5739", "police-force": "avon-and-somerset", "police-force-neighbourhood": "avon-and-somerset-DF140", "latitude": "51.5114", "name": "Filton"}
{"longitude": "-2.54673", "police-force": "avon-and-somerset", "police-force-neighbourhood": "avon-and-somerset-DF141", "latitude": "51.519", "name": "Stoke Gifford"}
{"longitude": "-2.60027", "police-force": "avon-and-somerset", "police-force-neighbourhood": "avon-and-somerset-DF142", "latitude": "51.5275", "name": "Patchway"}
{"longitude": "-2.54619", "police-force": "avon-and-somerset", "police-force-neighbourhood": "avon-and-somerset-DF143", "latitude": "51.5362", "name": "Bradley Stoke"}
{"longitude": "-2.52692", "police-force": "avon-and-somerset", "police-force-neighbourhood": "avon-and-somerset-DF144", "latitude": "51.5162", "name": "Winterbourne"}
{"longitude": "-2.47482", "police-force": "avon-and-somerset", "police-force-neighbourhood": "avon-and-somerset-DS101", "latitude": "51.4808", "name": "Downend and Siston"}
{"longitude": "-2.49814", "police-force": "avon-and-somerset", "police-force-neighbourhood": "avon-and-somerset-DS102", "latitude": "51.4799", "name": "Staple Hill and Rodway"}
{"longitude": "-2.49932", "police-force": "avon-and-somerset", "police-force-neighbourhood": "avon-and-somerset-DS103", "latitude": "51.4622", "name": "Kingswood"}
{"longitude": "-2.50824", "police-force": "avon-and-somerset", "police-force-neighbourhood": "avon-and-somerset-DS104", "latitude": "51.4393", "name": "Hanham and Longwell Green"}
{"longitude": "-2.46412", "police-force": "avon-and-somerset", "police-force-neighbourhood": "avon-and-somerset-DS105", "latitude": "51.4481", "name": "Cadbury Heath / Oldland"}
{"longitude": "-2.38901", "police-force": "avon-and-somerset", "police-force-neighbourhood": "avon-and-somerset-DS106", "latitude": "51.4619", "name": "Boyd Valley and Bitton"}
{"longitude": "-2.97897", "police-force": "avon-and-somerset", "police-force-neighbourhood": "avon-and-somerset-GB001", "latitude": "51.1398", "name": "Bridgwater Bower"}
{"longitude": "-2.99787", "police-force": "avon-and-somerset", "police-force-neighbourhood": "avon-and-somerset-GB002", "latitude": "51.1297", "name": "Bridgwater Eastover"}
{"longitude": "-3.00979", "police-force": "avon-and-somerset", "police-force-neighbourhood": "avon-and-somerset-GB003", "latitude": "51.1105", "name": "Bridgwater Hamp, Stockmoor and Wilstock"}
{"longitude": "-3.03143", "police-force": "avon-and-somerset", "police-force-neighbourhood": "avon-and-somerset-GB004", "latitude": "51.1426", "name": "Sandford and Bridgwater Quantock"}
{"longitude": "-2.97445", "police-force": "avon-and-somerset", "police-force-neighbourhood": "avon-and-somerset-GB005", "latitude": "51.121", "name": "Bridgwater Sydenham"}
{"longitude": "-3.0074", "police-force": "avon-and-somerset", "police-force-neighbourhood": "avon-and-somerset-GB006", "latitude": "51.1342", "name": "Bridgwater Victoria"}
{"longitude": "-3.11039", "police-force": "avon-and-somerset", "police-force-neighbourhood": "avon-and-somerset-GB007", "latitude": "51.1561", "name": "Cannington and Quantocks"}
{"longitude": "-2.94194", "police-force": "avon-and-somerset", "police-force-neighbourhood": "avon-and-somerset-GB008", "latitude": "51.0947", "name": "King's Isle and North Petherton"}
{"longitude": "-2.89559", "police-force": "avon-and-somerset", "police-force-neighbourhood": "avon-and-somerset-GB011", "latitude": "51.1507", "name": "Woolavington and West Poldens"}
{"longitude": "-3.47095", "police-force": "avon-and-somerset", "police-force-neighbourhood": "avon-and-somerset-GM001", "latitude": "51.1997", "name": "Alcombe East"}
{"longitude": "-3.4741", "police-force": "avon-and-somerset", "police-force-neighbourhood": "avon-and-somerset-GM002", "latitude": "51.2001", "name": "Alcombe West"}
{"longitude": "-3.54886", "police-force": "avon-and-somerset", "police-force-neighbourhood": "avon-and-somerset-GM003", "latitude": "51.1544", "name": "Aville Vale"}
{"longitude": "-3.57357", "police-force": "avon-and-somerset", "police-force-neighbourhood": "avon-and-somerset-GM004", "latitude": "51.046", "name": "Dulverton and Brushford"}
{"longitude": "-3.44915", "police-force": "avon-and-somerset", "police-force-neighbourhood": "avon-and-somerset-GM005", "latitude": "51.1799", "name": "Dunster"}
{"longitude": "-3.71576", "police-force": "avon-and-somerset", "police-force-neighbourhood": "avon-and-somerset-GM006", "latitude": "51.121", "name": "Exmoor"}
{"longitude": "-3.47883", "police-force": "avon-and-somerset", "police-force-neighbourhood": "avon-and-somerset-GM007", "latitude": "51.2101", "name": "Minehead North"}
{"longitude": "-3.49462", "police-force": "avon-and-somerset", "police-force-neighbourhood": "avon-and-somerset-GM008", "latitude": "51.2003", "name": "Minehead South"}
{"longitude": "-3.60917", "police-force": "avon-and-somerset", "police-force-neighbourhood": "avon-and-somerset-GM009", "latitude": "51.196", "name": "Porlock and District"}
{"longitude": "-3.51034", "police-force": "avon-and-somerset", "police-force-neighbourhood": "avon-and-somerset-GM010", "latitude": "51.0811", "name": "Quarme"}
{"longitude": "-3.37288", "police-force": "avon-and-somerset", "police-force-neighbourhood": "avon-and-somerset-GM011", "latitude": "51.0697", "name": "Brompton Ralph and Haddon"}
{"longitude": "-3.42817", "police-force": "avon-and-somerset", "police-force-neighbourhood": "avon-and-somerset-GM012", "latitude": "51.1603", "name": "Carhampton and Withycombe"}
{"longitude": "-3.27187", "police-force": "avon-and-somerset", "police-force-neighbourhood": "avon-and-somerset-GM013", "latitude": "51.1187", "name": "Crowcombe and Stogumber"}
{"longitude": "-3.40489", "police-force": "avon-and-somerset", "police-force-neighbourhood": "avon-and-somerset-GM014", "latitude": "51.1426", "name": "Old Cleeve"}
{"longitude": "-3.14397", "police-force": "avon-and-somerset", "police-force-neighbourhood": "avon-and-somerset-GM015", "latitude": "51.1803", "name": "Hinkley Point"}
{"longitude": "-3.33017", "police-force": "avon-and-somerset", "police-force-neighbourhood": "avon-and-somerset-GM016", "latitude": "51.179", "name": "Watchet"}
{"longitude": "-3.27952", "police-force": "avon-and-somerset", "police-force-neighbourhood": "avon-and-somerset-GM017", "latitude": "51.163", "name": "West Quantock"}
{"longitude": "-3.32034", "police-force": "avon-and-somerset", "police-force-neighbourhood": "avon-and-somerset-GM018", "latitude": "51.164", "name": "Williton"}
{"longitude": "-3.14078", "police-force": "avon-and-somerset", "police-force-neighbourhood": "avon-and-somerset-GT001", "latitude": "51.0102", "name": "Bishop's Hull"}
{"longitude": "-3.17829", "police-force": "avon-and-somerset", "police-force-neighbourhood": "avon-and-somerset-GT002", "latitude": "51.0718", "name": "Bishop's Lydeard"}
{"longitude": "-3.11981", "police-force": "avon-and-somerset", "police-force-neighbourhood": "avon-and-somerset-GT003", "latitude": "50.9436", "name": "Blackdown (Taunton)"}
{"longitude": "-3.1276", "police-force": "avon-and-somerset", "police-force-neighbourhood": "avon-and-somerset-GT004", "latitude": "51.0043", "name": "Comeytrowe"}
{"longitude": "-3.03854", "police-force": "avon-and-somerset", "police-force-neighbourhood": "avon-and-somerset-GT005", "latitude": "50.9749", "name": "Neroche (Taunton)"}
{"longitude": "-2.97224", "police-force": "avon-and-somerset", "police-force-neighbourhood": "avon-and-somerset-GT006", "latitude": "51.0208", "name": "North Curry"}
{"longitude": "-3.16115", "police-force": "avon-and-somerset", "police-force-neighbourhood": "avon-and-somerset-GT007", "latitude": "51.0317", "name": "Norton Fitzwarren"}
{"longitude": "-3.02953", "police-force": "avon-and-somerset", "police-force-neighbourhood": "avon-and-somerset-GT008", "latitude": "51.0279", "name": "Ruishton and Creech"}
{"longitude": "-3.11895", "police-force": "avon-and-somerset", "police-force-neighbourhood": "avon-and-somerset-GT009", "latitude": "51.0484", "name": "Staplegrove"}
{"longitude": "-2.92157", "police-force": "avon-and-somerset", "police-force-neighbourhood": "avon-and-somerset-GT010", "latitude": "51.0551", "name": "Stoke St Gregory"}
{"longitude": "-3.0779", "police-force": "avon-and-somerset", "police-force-neighbourhood": "avon-and-somerset-GT011", "latitude": "51.009", "name": "Taunton Blackbrook and Holway"}
{"longitude": "-3.09726", "police-force": "avon-and-somerset", "police-force-neighbourhood": "avon-and-somerset-GT012", "latitude": "51.0165", "name": "Taunton Eastgate"}
{"longitude": "-3.11193", "police-force": "avon-and-somerset", "police-force-neighbourhood": "avon-and-somerset-GT013", "latitude": "51.0236", "name": "Taunton Fairwater"}
{"longitude": "-3.07697", "police-force": "avon-and-somerset", "police-force-neighbourhood": "avon-and-somerset-GT014", "latitude": "51.0197", "name": "Taunton Halcon"}
{"longitude": "-3.09055", "police-force": "avon-and-somerset", "police-force-neighbourhood": "avon-and-somerset-GT015", "latitude": "51.0021", "name": "Taunton Killams and Mountfield"}
{"longitude": "-3.11107", "police-force": "avon-and-somerset", "police-force-neighbourhood": "avon-and-somerset-GT017", "latitude": "51.0077", "name": "Taunton Manor and Wilton"}
{"longitude": "-3.10039", "police-force": "avon-and-somerset", "police-force-neighbourhood": "avon-and-somerset-GT018", "latitude": "51.0353", "name": "Taunton Pyrland and Rowbarton"}
{"longitude": "-3.12971", "police-force": "avon-and-somerset", "police-force-neighbourhood": "avon-and-somerset-GT019", "latitude": "50.9903", "name": "Trull"}
{"longitude": "-3.06448", "police-force": "avon-and-somerset", "police-force-neighbourhood": "avon-and-somerset-GT020", "latitude": "51.0431", "name": "West Monkton"}
{"longitude": "-3.22457", "police-force": "avon-and-somerset", "police-force-neighbourhood": "avon-and-somerset-GT021", "latitude": "51.0087", "name": "Bradford-on-Tone"}
{"longitude": "-3.23135", "police-force": "avon-and-somerset", "police-force-neighbourhood": "avon-and-somerset-GT022", "latitude": "51.0625", "name": "Milverton and North Deane"}
{"longitude": "-3.23196", "police-force": "avon-and-somerset", "police-force-neighbourhood": "avon-and-somerset-GT023", "latitude": "50.9715", "name": "Wellington Monument"}
{"longitude": "-3.21627", "police-force": "avon-and-somerset", "police-force-neighbourhood": "avon-and-somerset-GT024", "latitude": "50.9776", "name": "Wellington East"}
{"longitude": "-3.23568", "police-force": "avon-and-somerset", "police-force-neighbourhood": "avon-and-somerset-GT025", "latitude": "50.9825", "name": "Wellington North"}
{"longitude": "-3.24642", "police-force": "avon-and-somerset", "police-force-neighbourhood": "avon-and-somerset-GT026", "latitude": "50.9764", "name": "Wellington Rockwell Green and West"}
{"longitude": "-3.33978", "police-force": "avon-and-somerset", "police-force-neighbourhood": "avon-and-somerset-GT027", "latitude": "51.0189", "name": "Wiveliscombe and West Deane"}
{"longitude": "-3.09754", "police-force": "avon-and-somerset", "police-force-neighbourhood": "avon-and-somerset-GT028", "latitude": "51.0208", "name": "Riverside and Firepool"}
{"longitude": "-3.09615", "police-force": "avon-and-somerset", "police-force-neighbourhood": "avon-and-somerset-GT029", "latitude": "51.0289", "name": "Taunton Lyngford North"}
{"longitude": "-2.85109", "police-force": "avon-and-somerset", "police-force-neighbourhood": "avon-and-somerset-GU001", "latitude": "51.2724", "name": "Axbridge and Axe Vale"}
{"longitude": "-2.84019", "police-force": "avon-and-somerset", "police-force-neighbourhood": "avon-and-somerset-GU002", "latitude": "51.2196", "name": "Wedmore and Mark"}
{"longitude": "-3.02821", "police-force": "avon-and-somerset", "police-force-neighbourhood": "avon-and-somerset-GU003", "latitude": "51.2917", "name": "Berrow and Brean"}
{"longitude": "-2.94074", "police-force": "avon-and-somerset", "police-force-neighbourhood": "avon-and-somerset-GU004", "latitude": "51.2587", "name": "Brent"}
{"longitude": "-3.00001", "police-force": "avon-and-somerset", "police-force-neighbourhood": "avon-and-somerset-GU005", "latitude": "51.2445", "name": "Burnham Urban"}
{"longitude": "-2.99741", "police-force": "avon-and-somerset", "police-force-neighbourhood": "avon-and-somerset-GU006", "latitude": "51.2319", "name": "Burnham Town"}
{"longitude": "-2.77452", "police-force": "avon-and-somerset", "police-force-neighbourhood": "avon-and-somerset-GU007", "latitude": "51.2815", "name": "Cheddar and Shipham"}
{"longitude": "-2.97766", "police-force": "avon-and-somerset", "police-force-neighbourhood": "avon-and-somerset-GU008", "latitude": "51.1947", "name": "Huntspill and Pawlett"}
{"longitude": "-2.97502", "police-force": "avon-and-somerset", "police-force-neighbourhood": "avon-and-somerset-GU009", "latitude": "51.2225", "name": "Highbridge"}
{"longitude": "-2.85802", "police-force": "avon-and-somerset", "police-force-neighbourhood": "avon-and-somerset-JC201", "latitude": "51.4417", "name": "North Walton"}
{"longitude": "-2.85002", "police-force": "avon-and-somerset", "police-force-neighbourhood": "avon-and-somerset-JC202", "latitude": "51.4483", "name": "Walton"}
{"longitude": "-2.87691", "police-force": "avon-and-somerset", "police-force-neighbourhood": "avon-and-somerset-JC203", "latitude": "51.4253", "name": "West Walton"}
{"longitude": "-2.85391", "police-force": "avon-and-somerset", "police-force-neighbourhood": "avon-and-somerset-JC204", "latitude": "51.4347", "name": "Clevedon Central"}
{"longitude": "-2.83036", "police-force": "avon-and-somerset", "police-force-neighbourhood": "avon-and-somerset-JC205", "latitude": "51.4391", "name": "Clevedon East"}
{"longitude": "-2.8467", "police-force": "avon-and-somerset", "police-force-neighbourhood": "avon-and-somerset-JC206", "latitude": "51.4289", "name": "Clevedon South"}
{"longitude": "-2.86468", "police-force": "avon-and-somerset", "police-force-neighbourhood": "avon-and-somerset-JC207", "latitude": "51.4215", "name": "Clevedon Yeo"}
{"longitude": "-2.82561", "police-force": "avon-and-somerset", "police-force-neighbourhood": "avon-and-somerset-JC208", "latitude": "51.401", "name": "Yatton"}
{"longitude": "-2.77682", "police-force": "avon-and-somerset", "police-force-neighbourhood": "avon-and-somerset-JC209", "latitude": "51.3902", "name": "Cleeve"}
{"longitude": "-2.83827", "police-force": "avon-and-somerset", "police-force-neighbourhood": "avon-and-somerset-JC210", "latitude": "51.4141", "name": "Kenn"}
{"longitude": "-2.87959", "police-force": "avon-and-somerset", "police-force-neighbourhood": "avon-and-somerset-JC211", "latitude": "51.3979", "name": "Kingston Seymour"}
{"longitude": "-2.80135", "police-force": "avon-and-somerset", "police-force-neighbourhood": "avon-and-somerset-JC212", "latitude": "51.3616", "name": "Congresbury"}
{"longitude": "-2.74118", "police-force": "avon-and-somerset", "police-force-neighbourhood": "avon-and-somerset-JC319", "latitude": "51.3665", "name": "Wrington"}
{"longitude": "-2.78458", "police-force": "avon-and-somerset", "police-force-neighbourhood": "avon-and-somerset-JN223", "latitude": "51.4419", "name": "Tickenham"}
{"longitude": "-2.78926", "police-force": "avon-and-somerset", "police-force-neighbourhood": "avon-and-somerset-JN303", "latitude": "51.4236", "name": "West End"}
{"longitude": "-2.76615", "police-force": "avon-and-somerset", "police-force-neighbourhood": "avon-and-somerset-JN304", "latitude": "51.4299", "name": "Mizzymead"}
{"longitude": "-2.76025", "police-force": "avon-and-somerset", "police-force-neighbourhood": "avon-and-somerset-JN305", "latitude": "51.4254", "name": "Youngwood"}
{"longitude": "-2.7616", "police-force": "avon-and-somerset", "police-force-neighbourhood": "avon-and-somerset-JN306", "latitude": "51.4362", "name": "Nailsea Yeo"}
{"longitude": "-2.74593", "police-force": "avon-and-somerset", "police-force-neighbourhood": "avon-and-somerset-JN307", "latitude": "51.4303", "name": "Golden Valley"}
{"longitude": "-2.73119", "police-force": "avon-and-somerset", "police-force-neighbourhood": "avon-and-somerset-JN308", "latitude": "51.4099", "name": "Backwell"}
{"longitude": "-2.76465", "police-force": "avon-and-somerset", "police-force-neighbourhood": "avon-and-somerset-JN309", "latitude": "51.4035", "name": "Brockley"}
{"longitude": "-2.681", "police-force": "avon-and-somerset", "police-force-neighbourhood": "avon-and-somerset-JN310", "latitude": "51.4061", "name": "Barrow Gurney"}
{"longitude": "-2.70585", "police-force": "avon-and-somerset", "police-force-neighbourhood": "avon-and-somerset-JN311", "latitude": "51.4206", "name": "Flax Bourton"}
{"longitude": "-2.71671", "police-force": "avon-and-somerset", "police-force-neighbourhood": "avon-and-somerset-JN312", "latitude": "51.4473", "name": "Failand and Wraxall"}
{"longitude": "-2.65642", "police-force": "avon-and-somerset", "police-force-neighbourhood": "avon-and-somerset-JN313", "latitude": "51.4653", "name": "Abbots Leigh"}
{"longitude": "-2.66545", "police-force": "avon-and-somerset", "police-force-neighbourhood": "avon-and-somerset-JN314", "latitude": "51.4312", "name": "Long Ashton"}
{"longitude": "-2.71367", "police-force": "avon-and-somerset", "police-force-neighbourhood": "avon-and-somerset-JN315", "latitude": "51.3333", "name": "Blagdon"}
{"longitude": "-2.75246", "police-force": "avon-and-somerset", "police-force-neighbourhood": "avon-and-somerset-JN316", "latitude": "51.3336", "name": "Burrington"}
{"longitude": "-2.7079", "police-force": "avon-and-somerset", "police-force-neighbourhood": "avon-and-somerset-JN317", "latitude": "51.3586", "name": "Butcombe"}
{"longitude": "-2.79692", "police-force": "avon-and-somerset", "police-force-neighbourhood": "avon-and-somerset-JN318", "latitude": "51.3424", "name": "Churchill"}
{"longitude": "-2.66545", "police-force": "avon-and-somerset", "police-force-neighbourhood": "avon-and-somerset-JN320", "latitude": "51.3684", "name": "Winford"}
{"longitude": "-2.61658", "police-force": "avon-and-somerset", "police-force-neighbourhood": "avon-and-somerset-JN321", "latitude": "51.4003", "name": "Dundry"}
{"longitude": "-2.71907", "police-force": "avon-and-somerset", "police-force-neighbourhood": "avon-and-somerset-JN322", "latitude": "51.382", "name": "Bristol Airport"}
{"longitude": "-2.7637", "police-force": "avon-and-somerset", "police-force-neighbourhood": "avon-and-somerset-JP213", "latitude": "51.4877", "name": "Portishead Central"}
{"longitude": "-2.78142", "police-force": "avon-and-somerset", "police-force-neighbourhood": "avon-and-somerset-JP214", "latitude": "51.488", "name": "Portishead Coast"}
{"longitude": "-2.76026", "police-force": "avon-and-somerset", "police-force-neighbourhood": "avon-and-somerset-JP215", "latitude": "51.4805", "name": "Portishead East"}
{"longitude": "-2.80315", "police-force": "avon-and-somerset", "police-force-neighbourhood": "avon-and-somerset-JP216", "latitude": "51.4771", "name": "Redcliffe Bay"}
{"longitude": "-2.7759", "police-force": "avon-and-somerset", "police-force-neighbourhood": "avon-and-somerset-JP217", "latitude": "51.4742", "name": "Redcliffe Bay North/South"}
{"longitude": "-2.786", "police-force": "avon-and-somerset", "police-force-neighbourhood": "avon-and-somerset-JP218", "latitude": "51.4801", "name": "Redcliffe Bay West"}
{"longitude": "-2.78099", "police-force": "avon-and-somerset", "police-force-neighbourhood": "avon-and-somerset-JP219", "latitude": "51.4592", "name": "Clapton-in-Gordano"}
{"longitude": "-2.82706", "police-force": "avon-and-somerset", "police-force-neighbourhood": "avon-and-somerset-JP220", "latitude": "51.4586", "name": "Walton-in-Gordano"}
{"longitude": "-2.80119", "police-force": "avon-and-somerset", "police-force-neighbourhood": "avon-and-somerset-JP221", "latitude": "51.4635", "name": "Weston-in-Gordano"}
{"longitude": "-2.73061", "police-force": "avon-and-somerset", "police-force-neighbourhood": "avon-and-somerset-JP222", "latitude": "51.472", "name": "Portbury"}
{"longitude": "-2.70844", "police-force": "avon-and-somerset", "police-force-neighbourhood": "avon-and-somerset-JP224", "latitude": "51.4823", "name": "Easton-in-Gordano"}
{"longitude": "-2.68098", "police-force": "avon-and-somerset", "police-force-neighbourhood": "avon-and-somerset-JP225", "latitude": "51.4745", "name": "Pill"}
{"longitude": "-2.99024", "police-force": "avon-and-somerset", "police-force-neighbourhood": "avon-and-somerset-JW101", "latitude": "51.3447", "name": "Weston-super-Mare Central"}
{"longitude": "-2.98536", "police-force": "avon-and-somerset", "police-force-neighbourhood": "avon-and-somerset-JW102", "latitude": "51.3259", "name": "Clarence (Uphill)"}
{"longitude": "-2.9412", "police-force": "avon-and-somerset", "police-force-neighbourhood": "avon-and-somerset-JW103", "latitude": "51.3394", "name": "Summerlands / Hutton Moor / Locking Castle"}
{"longitude": "-2.9624", "police-force": "avon-and-somerset", "police-force-neighbourhood": "avon-and-somerset-JW104", "latitude": "51.3329", "name": "Bournville / Coronation / Oldmixon / The Potteries"}
{"longitude": "-2.97724", "police-force": "avon-and-somerset", "police-force-neighbourhood": "avon-and-somerset-JW105", "latitude": "51.3591", "name": "Ashcombe"}
{"longitude": "-2.94487", "police-force": "avon-and-somerset", "police-force-neighbourhood": "avon-and-somerset-JW106", "latitude": "51.36", "name": "Milton and Worle High Street"}
{"longitude": "-2.91954", "police-force": "avon-and-somerset", "police-force-neighbourhood": "avon-and-somerset-JW107", "latitude": "51.3675", "name": "North Worle"}
{"longitude": "-2.91588", "police-force": "avon-and-somerset", "police-force-neighbourhood": "avon-and-somerset-JW108", "latitude": "51.3556", "name": "Mead Vale / Preanes Green"}
{"longitude": "-2.87606", "police-force": "avon-and-somerset", "police-force-neighbourhood": "avon-and-somerset-JW109", "latitude": "51.3294", "name": "Banwell"}
{"longitude": "-2.84579", "police-force": "avon-and-somerset", "police-force-neighbourhood": "avon-and-somerset-JW110", "latitude": "51.3274", "name": "Winscombe and Sandford"}
{"longitude": "-2.92507", "police-force": "avon-and-somerset", "police-force-neighbourhood": "avon-and-somerset-JW111", "latitude": "51.3256", "name": "Hutton"}
{"longitude": "-2.91361", "police-force": "avon-and-somerset", "police-force-neighbourhood": "avon-and-somerset-JW112", "latitude": "51.3395", "name": "Locking"}
{"longitude": "-2.95126", "police-force": "avon-and-somerset", "police-force-neighbourhood": "avon-and-somerset-JW113", "latitude": "51.3066", "name": "Bleadon"}
{"longitude": "-2.95435", "police-force": "avon-and-somerset", "police-force-neighbourhood": "avon-and-somerset-JW114", "latitude": "51.3807", "name": "Kewstoke"}
{"longitude": "-2.90786", "police-force": "avon-and-somerset", "police-force-neighbourhood": "avon-and-somerset-JW116", "latitude": "51.3851", "name": "Wick St Lawrence"}
{"longitude": "-2.86604", "police-force": "avon-and-somerset", "police-force-neighbourhood": "avon-and-somerset-JW117", "latitude": "51.3688", "name": "Puxton and Hewish"}
{"longitude": "-2.89847", "police-force": "avon-and-somerset", "police-force-neighbourhood": "avon-and-somerset-JW118", "latitude": "51.3646", "name": "St Georges"}
{"longitude": "-0.414083", "police-force": "bedfordshire", "police-force-neighbourhood": "bedfordshire-10", "latitude": "51.8797", "name": "Luton Town Centre"}
{"longitude": "-0.437315", "police-force": "bedfordshire", "police-force-neighbourhood": "bedfordshire-11", "latitude": "51.921", "name": "Bramingham"}
{"longitude": "-0.455028", "police-force": "bedfordshire", "police-force-neighbourhood": "bedfordshire-12", "latitude": "51.9153", "name": "Marsh Farm"}
{"longitude": "-0.472823", "police-force": "bedfordshire", "police-force-neighbourhood": "bedfordshire-13", "latitude": "51.917", "name": "Sundon Park"}
{"longitude": "-0.430306", "police-force": "bedfordshire", "police-force-neighbourhood": "bedfordshire-14", "latitude": "51.9121", "name": "Runfold"}
{"longitude": "-0.448584", "police-force": "bedfordshire", "police-force-neighbourhood": "bedfordshire-15", "latitude": "51.9082", "name": "Limbury"}
{"longitude": "-0.470767", "police-force": "bedfordshire", "police-force-neighbourhood": "bedfordshire-16", "latitude": "51.9086", "name": "Leagrave"}
{"longitude": "-0.489143", "police-force": "bedfordshire", "police-force-neighbourhood": "bedfordshire-17", "latitude": "51.9027", "name": "Lewsey"}
{"longitude": "-0.480749", "police-force": "bedfordshire", "police-force-neighbourhood": "bedfordshire-18", "latitude": "51.8935", "name": "South Lewsey"}
{"longitude": "-0.459632", "police-force": "bedfordshire", "police-force-neighbourhood": "bedfordshire-19", "latitude": "51.8989", "name": "North Challney"}
{"longitude": "-0.462193", "police-force": "bedfordshire", "police-force-neighbourhood": "bedfordshire-20", "latitude": "51.8906", "name": "Challney"}
{"longitude": "-0.432169", "police-force": "bedfordshire", "police-force-neighbourhood": "bedfordshire-21", "latitude": "51.8674", "name": "Farley"}
{"longitude": "-0.426197", "police-force": "bedfordshire", "police-force-neighbourhood": "bedfordshire-22", "latitude": "51.8761", "name": "South Town"}
{"longitude": "-0.412921", "police-force": "bedfordshire", "police-force-neighbourhood": "bedfordshire-23", "latitude": "51.8681", "name": "South"}
{"longitude": "-0.411272", "police-force": "bedfordshire", "police-force-neighbourhood": "bedfordshire-24", "latitude": "51.8723", "name": "North South"}
{"longitude": "-0.400589", "police-force": "bedfordshire", "police-force-neighbourhood": "bedfordshire-25", "latitude": "51.8738", "name": "Park Town"}
{"longitude": "-0.41824", "police-force": "bedfordshire", "police-force-neighbourhood": "bedfordshire-26", "latitude": "51.9071", "name": "North Barnfield"}
{"longitude": "-0.415528", "police-force": "bedfordshire", "police-force-neighbourhood": "bedfordshire-27", "latitude": "51.9007", "name": "South Barnfield"}
{"longitude": "-0.433933", "police-force": "bedfordshire", "police-force-neighbourhood": "bedfordshire-28", "latitude": "51.8987", "name": "Saints"}
{"longitude": "-0.446902", "police-force": "bedfordshire", "police-force-neighbourhood": "bedfordshire-29", "latitude": "51.9013", "name": "Icknield (Luton)"}
{"longitude": "-0.44458", "police-force": "bedfordshire", "police-force-neighbourhood": "bedfordshire-30", "latitude": "51.8939", "name": "South Saints"}
{"longitude": "-0.429034", "police-force": "bedfordshire", "police-force-neighbourhood": "bedfordshire-31", "latitude": "51.8901", "name": "Biscot"}
{"longitude": "-0.431614", "police-force": "bedfordshire", "police-force-neighbourhood": "bedfordshire-32", "latitude": "51.8869", "name": "Bury Park"}
{"longitude": "-0.454064", "police-force": "bedfordshire", "police-force-neighbourhood": "bedfordshire-33", "latitude": "51.8851", "name": "West Dallow"}
{"longitude": "-0.433757", "police-force": "bedfordshire", "police-force-neighbourhood": "bedfordshire-34", "latitude": "51.8824", "name": "Dallow"}
{"longitude": "-0.412775", "police-force": "bedfordshire", "police-force-neighbourhood": "bedfordshire-35", "latitude": "51.8898", "name": "North High Town"}
{"longitude": "-0.409058", "police-force": "bedfordshire", "police-force-neighbourhood": "bedfordshire-36", "latitude": "51.8842", "name": "High Town"}
{"longitude": "-0.389426", "police-force": "bedfordshire", "police-force-neighbourhood": "bedfordshire-37", "latitude": "51.8944", "name": "South Stopsley"}
{"longitude": "-0.373321", "police-force": "bedfordshire", "police-force-neighbourhood": "bedfordshire-38", "latitude": "51.8929", "name": "Wigmore"}
{"longitude": "-0.386745", "police-force": "bedfordshire", "police-force-neighbourhood": "bedfordshire-39", "latitude": "51.9043", "name": "Stopsley"}
{"longitude": "-0.369454", "police-force": "bedfordshire", "police-force-neighbourhood": "bedfordshire-40", "latitude": "51.8778", "name": "Luton Airport"}
{"longitude": "-0.384328", "police-force": "bedfordshire", "police-force-neighbourhood": "bedfordshire-41", "latitude": "51.8862", "name": "North Crawley"}
{"longitude": "-0.397687", "police-force": "bedfordshire", "police-force-neighbourhood": "bedfordshire-42", "latitude": "51.9087", "name": "North Stopsley"}
{"longitude": "-0.39929", "police-force": "bedfordshire", "police-force-neighbourhood": "bedfordshire-43", "latitude": "51.8866", "name": "Hart Hill"}
{"longitude": "-0.405148", "police-force": "bedfordshire", "police-force-neighbourhood": "bedfordshire-44", "latitude": "51.8954", "name": "Round Green"}
{"longitude": "-0.396006", "police-force": "bedfordshire", "police-force-neighbourhood": "bedfordshire-45", "latitude": "51.8789", "name": "Crawley"}
{"longitude": "-0.462", "police-force": "bedfordshire", "police-force-neighbourhood": "bedfordshire-46", "latitude": "52.1574", "name": "Brickhill"}
{"longitude": "-0.455485", "police-force": "bedfordshire", "police-force-neighbourhood": "bedfordshire-47", "latitude": "52.1452", "name": "De Parys"}
{"longitude": "-0.440003", "police-force": "bedfordshire", "police-force-neighbourhood": "bedfordshire-48", "latitude": "52.1549", "name": "Putnoe"}
{"longitude": "-0.425496", "police-force": "bedfordshire", "police-force-neighbourhood": "bedfordshire-49", "latitude": "52.1368", "name": "Newnham"}
{"longitude": "-0.42448", "police-force": "bedfordshire", "police-force-neighbourhood": "bedfordshire-50", "latitude": "52.1493", "name": "Goldington"}
{"longitude": "-0.479762", "police-force": "bedfordshire", "police-force-neighbourhood": "bedfordshire-51", "latitude": "52.1487", "name": "Harpur"}
{"longitude": "-0.488592", "police-force": "bedfordshire", "police-force-neighbourhood": "bedfordshire-52", "latitude": "52.1362", "name": "Queen's Park"}
{"longitude": "-0.563393", "police-force": "bedfordshire", "police-force-neighbourhood": "bedfordshire-53", "latitude": "52.1393", "name": "Bromham and Turvey"}
{"longitude": "-0.49838", "police-force": "bedfordshire", "police-force-neighbourhood": "bedfordshire-54", "latitude": "52.1995", "name": "Clapham and Oakley"}
{"longitude": "-0.520419", "police-force": "bedfordshire", "police-force-neighbourhood": "bedfordshire-55", "latitude": "52.2371", "name": "Carlton to Riseley"}
{"longitude": "-0.358251", "police-force": "bedfordshire", "police-force-neighbourhood": "bedfordshire-56", "latitude": "52.1818", "name": "Great Barford &amp; Roxton"}
{"longitude": "-0.468812", "police-force": "bedfordshire", "police-force-neighbourhood": "bedfordshire-57", "latitude": "52.1366", "name": "Bedford Town Centre"}
{"longitude": "-0.47638", "police-force": "bedfordshire", "police-force-neighbourhood": "bedfordshire-58", "latitude": "52.1346", "name": "Bedford Central West (Midland Road)"}
{"longitude": "-0.453249", "police-force": "bedfordshire", "police-force-neighbourhood": "bedfordshire-59", "latitude": "52.1366", "name": "Bedford Central East (Castle Road)"}
{"longitude": "-0.444125", "police-force": "bedfordshire", "police-force-neighbourhood": "bedfordshire-60", "latitude": "52.1252", "name": "Kingsbrook and Cauldwell"}
{"longitude": "-0.432867", "police-force": "bedfordshire", "police-force-neighbourhood": "bedfordshire-61", "latitude": "52.1021", "name": "Eastcotts and Wilstead"}
{"longitude": "-0.502047", "police-force": "bedfordshire", "police-force-neighbourhood": "bedfordshire-62", "latitude": "52.1126", "name": "Kempston"}
{"longitude": "-0.533561", "police-force": "bedfordshire", "police-force-neighbourhood": "bedfordshire-63", "latitude": "52.0826", "name": "Wootton"}
{"longitude": "-0.562387", "police-force": "bedfordshire", "police-force-neighbourhood": "bedfordshire-64", "latitude": "52.0219", "name": "Cranfield, Marston &amp; Woburn"}
{"longitude": "-0.455319", "police-force": "bedfordshire", "police-force-neighbourhood": "bedfordshire-65", "latitude": "51.8656", "name": "Dunstable, Houghton Regis &amp; Rural"}
{"longitude": "-0.302687", "police-force": "bedfordshire", "police-force-neighbourhood": "bedfordshire-66", "latitude": "52.0246", "name": "Shefford, Stotfold &amp; Arlesey"}
{"longitude": "-0.655973", "police-force": "bedfordshire", "police-force-neighbourhood": "bedfordshire-67", "latitude": "51.9313", "name": "Leighton Buzzard &amp; Linslade "}
{"longitude": "-0.267069", "police-force": "bedfordshire", "police-force-neighbourhood": "bedfordshire-68", "latitude": "52.1138", "name": "Sandy &amp; Biggleswade"}
{"longitude": "-0.521946", "police-force": "bedfordshire", "police-force-neighbourhood": "bedfordshire-69", "latitude": "51.9189", "name": "Leighton Rural"}
{"longitude": "-0.410712", "police-force": "bedfordshire", "police-force-neighbourhood": "bedfordshire-70", "latitude": "52.0178", "name": "Ampthill &amp; Flitwick Area"}
{"longitude": "0.126538", "police-force": "cambridgeshire", "police-force-neighbourhood": "cambridgeshire-CamCity_Cambridge_City", "latitude": "52.2054", "name": "Cambridge City Centre policing team"}
{"longitude": "0.154826", "police-force": "cambridgeshire", "police-force-neighbourhood": "cambridgeshire-CamCity_East_City", "latitude": "52.2025", "name": "Cambridge - East policing team"}
{"longitude": "0.137354", "police-force": "cambridgeshire", "police-force-neighbourhood": "cambridgeshire-CamCity_North_City", "latitude": "52.2238", "name": "Cambridge - North policing team"}
{"longitude": "0.141342", "police-force": "cambridgeshire", "police-force-neighbourhood": "cambridgeshire-CamCity_South_City", "latitude": "52.1794", "name": "Cambridge - South policing team"}
{"longitude": "0.0935597", "police-force": "cambridgeshire", "police-force-neighbourhood": "cambridgeshire-CamCity_West_City", "latitude": "52.2093", "name": "Cambridge - West policing team"}
{"longitude": "0.320852", "police-force": "cambridgeshire", "police-force-neighbourhood": "cambridgeshire-ECambs_Ely_City", "latitude": "52.4019", "name": "Ely City policing team"}
{"longitude": "0.231882", "police-force": "cambridgeshire", "police-force-neighbourhood": "cambridgeshire-ECambs_Littleport_and_West", "latitude": "52.4152", "name": "Ely North policing team"}
{"longitude": "0.362477", "police-force": "cambridgeshire", "police-force-neighbourhood": "cambridgeshire-ECambs_Soham_and_South", "latitude": "52.2859", "name": "Ely South policing team"}
{"longitude": "0.107759", "police-force": "cambridgeshire", "police-force-neighbourhood": "cambridgeshire-Fenland_March_and_Chatteris", "latitude": "52.488", "name": "March and Chatteris policing team"}
{"longitude": "-0.0989735", "police-force": "cambridgeshire", "police-force-neighbourhood": "cambridgeshire-Fenland_Whittlesey", "latitude": "52.5309", "name": "Whittlesey policing team"}
{"longitude": "0.0996558", "police-force": "cambridgeshire", "police-force-neighbourhood": "cambridgeshire-Fenland_Wisbech", "latitude": "52.6298", "name": "Wisbech policing team"}
{"longitude": "-0.315111", "police-force": "cambridgeshire", "police-force-neighbourhood": "cambridgeshire-Hunts_Huntingdon_and_Yaxley", "latitude": "52.4306", "name": "Huntingdon policing team"}
{"longitude": "-0.0955221", "police-force": "cambridgeshire", "police-force-neighbourhood": "cambridgeshire-Hunts_St_Ives_and_Ramsey", "latitude": "52.387", "name": "St Ives and Ramsey policing team"}
{"longitude": "-0.283733", "police-force": "cambridgeshire", "police-force-neighbourhood": "cambridgeshire-Hunts_St_Neots", "latitude": "52.2505", "name": "St Neots policing team"}
{"longitude": "-0.219444", "police-force": "cambridgeshire", "police-force-neighbourhood": "cambridgeshire-Pboro_Eastern", "latitude": "52.5853", "name": "Peterborough - Eastern policing team"}
{"longitude": "-0.255202", "police-force": "cambridgeshire", "police-force-neighbourhood": "cambridgeshire-Pboro_Northern", "latitude": "52.6138", "name": "Peterborough - Northern policing team"}
{"longitude": "-0.257216", "police-force": "cambridgeshire", "police-force-neighbourhood": "cambridgeshire-Pboro_Southern", "latitude": "52.5392", "name": "Peterborough - Southern policing team"}
{"longitude": "-0.0610559", "police-force": "cambridgeshire", "police-force-neighbourhood": "cambridgeshire-SCambs_Cambourne", "latitude": "52.1297", "name": "Cambourne policing team"}
{"longitude": "0.0330755", "police-force": "cambridgeshire", "police-force-neighbourhood": "cambridgeshire-SCambs_Histon", "latitude": "52.2854", "name": "Histon policing team"}
{"longitude": "0.245649", "police-force": "cambridgeshire", "police-force-neighbourhood": "cambridgeshire-SCambs_Sawston", "latitude": "52.153", "name": "Sawston policing team"}
{"longitude": "-2.22868", "police-force": "cheshire", "police-force-neighbourhood": "cheshire-N001", "latitude": "53.1603", "name": "Congleton"}
{"longitude": "-2.30882", "police-force": "cheshire", "police-force-neighbourhood": "cheshire-N002", "latitude": "53.1205", "name": "Sandbach and Alsager"}
{"longitude": "-2.35913", "police-force": "cheshire", "police-force-neighbourhood": "cheshire-N003", "latitude": "53.1856", "name": "Middlewich and Holmes Chapel"}
{"longitude": "-2.45822", "police-force": "cheshire", "police-force-neighbourhood": "cheshire-N004", "latitude": "53.1008", "name": "Crewe"}
{"longitude": "-2.46736", "police-force": "cheshire", "police-force-neighbourhood": "cheshire-N005", "latitude": "53.0708", "name": "Shavington"}
{"longitude": "-2.37519", "police-force": "cheshire", "police-force-neighbourhood": "cheshire-N006", "latitude": "53.0868", "name": "Haslington"}
{"longitude": "-2.51821", "police-force": "cheshire", "police-force-neighbourhood": "cheshire-N007", "latitude": "53.0689", "name": "Nantwich Town"}
{"longitude": "-2.56168", "police-force": "cheshire", "police-force-neighbourhood": "cheshire-N008", "latitude": "53.0557", "name": "Nantwich Rural"}
{"longitude": "-2.09345", "police-force": "cheshire", "police-force-neighbourhood": "cheshire-N009", "latitude": "53.2225", "name": "Macclesfield Forest"}
{"longitude": "-2.15268", "police-force": "cheshire", "police-force-neighbourhood": "cheshire-N010", "latitude": "53.2713", "name": "Broken Cross"}
{"longitude": "-2.11259", "police-force": "cheshire", "police-force-neighbourhood": "cheshire-N011", "latitude": "53.353", "name": "Poynton"}
{"longitude": "-2.06673", "police-force": "cheshire", "police-force-neighbourhood": "cheshire-N012", "latitude": "53.3145", "name": "Bollington and Disley"}
{"longitude": "-2.10523", "police-force": "cheshire", "police-force-neighbourhood": "cheshire-N013", "latitude": "53.2655", "name": "Macclesfield Town"}
{"longitude": "-2.22347", "police-force": "cheshire", "police-force-neighbourhood": "cheshire-N014", "latitude": "53.2403", "name": "Macclesfield West"}
{"longitude": "-2.14821", "police-force": "cheshire", "police-force-neighbourhood": "cheshire-N015", "latitude": "53.3045", "name": "Prestbury and Tytherington"}
{"longitude": "-2.36403", "police-force": "cheshire", "police-force-neighbourhood": "cheshire-N016", "latitude": "53.3166", "name": "Knutsford Rural"}
{"longitude": "-2.36547", "police-force": "cheshire", "police-force-neighbourhood": "cheshire-N017", "latitude": "53.3034", "name": "Knutsford Town"}
{"longitude": "-2.20697", "police-force": "cheshire", "police-force-neighbourhood": "cheshire-N018", "latitude": "53.3409", "name": "Wilmslow North"}
{"longitude": "-2.24037", "police-force": "cheshire", "police-force-neighbourhood": "cheshire-N019", "latitude": "53.3334", "name": "Wilmslow South"}
{"longitude": "-2.24102", "police-force": "cheshire", "police-force-neighbourhood": "cheshire-N020", "latitude": "53.3027", "name": "Alderley Edge"}
{"longitude": "-2.5781", "police-force": "cheshire", "police-force-neighbourhood": "cheshire-N021", "latitude": "53.3935", "name": "Howley and Fairfield"}
{"longitude": "-2.58553", "police-force": "cheshire", "police-force-neighbourhood": "cheshire-N022", "latitude": "53.4073", "name": "Longford and Orford"}
{"longitude": "-2.58948", "police-force": "cheshire", "police-force-neighbourhood": "cheshire-N023", "latitude": "53.4154", "name": "Poplars and Hulme"}
{"longitude": "-2.59378", "police-force": "cheshire", "police-force-neighbourhood": "cheshire-N024", "latitude": "53.3894", "name": "Warrington Town Centre"}
{"longitude": "-2.6191", "police-force": "cheshire", "police-force-neighbourhood": "cheshire-N025", "latitude": "53.4229", "name": "Burtonwood and Westbrook"}
{"longitude": "-2.65448", "police-force": "cheshire", "police-force-neighbourhood": "cheshire-N026", "latitude": "53.3769", "name": "Great Sankey, Whittle Hall, Penketh and Cuerdley"}
{"longitude": "-2.61331", "police-force": "cheshire", "police-force-neighbourhood": "cheshire-N027", "latitude": "53.3926", "name": "Bewsey, Dallam, Whitecross and Sankey Bridges"}
{"longitude": "-2.51648", "police-force": "cheshire", "police-force-neighbourhood": "cheshire-N028", "latitude": "53.4237", "name": "Birchwood"}
{"longitude": "-2.55296", "police-force": "cheshire", "police-force-neighbourhood": "cheshire-N029", "latitude": "53.4075", "name": "Poulton (North and South)"}
{"longitude": "-2.52615", "police-force": "cheshire", "police-force-neighbourhood": "cheshire-N030", "latitude": "53.4535", "name": "Culcheth, Glazebury and Croft"}
{"longitude": "-2.50137", "police-force": "cheshire", "police-force-neighbourhood": "cheshire-N031", "latitude": "53.4107", "name": "Rixton and Woolston"}
{"longitude": "-2.56859", "police-force": "cheshire", "police-force-neighbourhood": "cheshire-N032", "latitude": "53.3512", "name": "Stockton Heath, Appleton, Stretton, Hatton and Walton"}
{"longitude": "-2.49747", "police-force": "cheshire", "police-force-neighbourhood": "cheshire-N033", "latitude": "53.3753", "name": "Lymm, Grappenhall and Thelwall"}
{"longitude": "-2.57386", "police-force": "cheshire", "police-force-neighbourhood": "cheshire-N034", "latitude": "53.3811", "name": "Latchford East and West"}
{"longitude": "-2.64296", "police-force": "cheshire", "police-force-neighbourhood": "cheshire-N035", "latitude": "53.3345", "name": "Daresbury Rural"}
{"longitude": "-2.68898", "police-force": "cheshire", "police-force-neighbourhood": "cheshire-N036", "latitude": "53.3383", "name": "Halton Castle and New Town"}
{"longitude": "-2.71638", "police-force": "cheshire", "police-force-neighbourhood": "cheshire-N037", "latitude": "53.328", "name": "Higher Runcorn"}
{"longitude": "-2.73845", "police-force": "cheshire", "police-force-neighbourhood": "cheshire-N038", "latitude": "53.3633", "name": "Appleton, Kingsway and Riverside"}
{"longitude": "-2.79554", "police-force": "cheshire", "police-force-neighbourhood": "cheshire-N039", "latitude": "53.3407", "name": "Ditton and Hale"}
{"longitude": "-2.75678", "police-force": "cheshire", "police-force-neighbourhood": "cheshire-N040", "latitude": "53.3776", "name": "Birchfield, Broadheath and Hough Green"}
{"longitude": "-2.72063", "police-force": "cheshire", "police-force-neighbourhood": "cheshire-N041", "latitude": "53.3779", "name": "Farnworth and Halton View"}
{"longitude": "-2.89593", "police-force": "cheshire", "police-force-neighbourhood": "cheshire-N042", "latitude": "53.1936", "name": "Chester Inner"}
{"longitude": "-2.96246", "police-force": "cheshire", "police-force-neighbourhood": "cheshire-N043", "latitude": "53.235", "name": "Blacon and Saughall"}
{"longitude": "-2.87406", "police-force": "cheshire", "police-force-neighbourhood": "cheshire-N044", "latitude": "53.1863", "name": "Upton, Newton and Hoole"}
{"longitude": "-2.89904", "police-force": "cheshire", "police-force-neighbourhood": "cheshire-N045", "latitude": "53.1788", "name": "Overleigh"}
{"longitude": "-2.6789", "police-force": "cheshire", "police-force-neighbourhood": "cheshire-N046", "latitude": "53.2464", "name": "Frodsham"}
{"longitude": "-2.83155", "police-force": "cheshire", "police-force-neighbourhood": "cheshire-N047", "latitude": "53.209", "name": "Mickle Trafford"}
{"longitude": "-2.74113", "police-force": "cheshire", "police-force-neighbourhood": "cheshire-N048", "latitude": "53.0948", "name": "Broxton"}
{"longitude": "-2.86622", "police-force": "cheshire", "police-force-neighbourhood": "cheshire-N049", "latitude": "53.2877", "name": "Ellesmere Port"}
{"longitude": "-3.0329", "police-force": "cheshire", "police-force-neighbourhood": "cheshire-N050", "latitude": "53.2824", "name": "Neston"}
{"longitude": "-2.53268", "police-force": "cheshire", "police-force-neighbourhood": "cheshire-N051", "latitude": "53.266", "name": "Northwich"}
{"longitude": "-2.46081", "police-force": "cheshire", "police-force-neighbourhood": "cheshire-N052", "latitude": "53.211", "name": "Winsford"}
{"longitude": "-0.0932855", "police-force": "city-of-london", "police-force-neighbourhood": "city-of-london-cp", "latitude": "51.5149", "name": "Community Policing"}
{"longitude": "-1.24776", "police-force": "cleveland", "police-force-neighbourhood": "cleveland-Acklam", "latitude": "54.5446", "name": "Acklam"}
{"longitude": "-1.26855", "police-force": "cleveland", "police-force-neighbourhood": "cleveland-Ayresome", "latitude": "54.554", "name": "Ayresome"}
{"longitude": "-1.20347", "police-force": "cleveland", "police-force-neighbourhood": "cleveland-Berwick Hills and Pallister", "latitude": "54.5598", "name": "Berwick Hills and Pallister"}
{"longitude": "-1.29071", "police-force": "cleveland", "police-force-neighbourhood": "cleveland-Billingham Central", "latitude": "54.6096", "name": "Billingham Central"}
{"longitude": "-1.25369", "police-force": "cleveland", "police-force-neighbourhood": "cleveland-Billingham East", "latitude": "54.6137", "name": "Billingham East"}
{"longitude": "-1.28363", "police-force": "cleveland", "police-force-neighbourhood": "cleveland-Billingham North", "latitude": "54.6217", "name": "Billingham North"}
{"longitude": "-1.22734", "police-force": "cleveland", "police-force-neighbourhood": "cleveland-Billingham South", "latitude": "54.6019", "name": "Billingham South"}
{"longitude": "-1.30824", "police-force": "cleveland", "police-force-neighbourhood": "cleveland-Billingham West", "latitude": "54.6026", "name": "Billingham West"}
{"longitude": "-1.36116", "police-force": "cleveland", "police-force-neighbourhood": "cleveland-Bishopsgarth and Elm Tree", "latitude": "54.5791", "name": "Bishopsgarth and Elm Tree"}
{"longitude": "-1.18755", "police-force": "cleveland", "police-force-neighbourhood": "cleveland-Brambles and Thorntree", "latitude": "54.5647", "name": "Brambles and Thorntree"}
{"longitude": "-0.930606", "police-force": "cleveland", "police-force-neighbourhood": "cleveland-Brotton", "latitude": "54.5728", "name": "Brotton"}
{"longitude": "-1.22333", "police-force": "cleveland", "police-force-neighbourhood": "cleveland-Burn Valley", "latitude": "54.6802", "name": "Burn Valley"}
{"longitude": "-1.22585", "police-force": "cleveland", "police-force-neighbourhood": "cleveland-Central", "latitude": "54.5782", "name": "Central"}
{"longitude": "-1.07493", "police-force": "cleveland", "police-force-neighbourhood": "cleveland-Coatham", "latitude": "54.6191", "name": "Coatham"}
{"longitude": "-1.21764", "police-force": "cleveland", "police-force-neighbourhood": "cleveland-Coulby Newham", "latitude": "54.5204", "name": "Coulby Newham"}
{"longitude": "-1.23157", "police-force": "cleveland", "police-force-neighbourhood": "cleveland-De Bruce", "latitude": "54.7111", "name": "De Bruce"}
{"longitude": "-1.12765", "police-force": "cleveland", "police-force-neighbourhood": "cleveland-Dormanstown", "latitude": "54.6073", "name": "Dormanstown"}
{"longitude": "-1.38171", "police-force": "cleveland", "police-force-neighbourhood": "cleveland-Eaglescliffe", "latitude": "54.5145", "name": "Eaglescliffe"}
{"longitude": "-1.11801", "police-force": "cleveland", "police-force-neighbourhood": "cleveland-Eston", "latitude": "54.5609", "name": "Eston"}
{"longitude": "-1.36106", "police-force": "cleveland", "police-force-neighbourhood": "cleveland-Fairfield", "latitude": "54.5669", "name": "Fairfield"}
{"longitude": "-1.2344", "police-force": "cleveland", "police-force-neighbourhood": "cleveland-Fens and Rossmere", "latitude": "54.6558", "name": "Fens and Rossmere"}
{"longitude": "-1.22306", "police-force": "cleveland", "police-force-neighbourhood": "cleveland-Foggy Furze", "latitude": "54.6709", "name": "Foggy Furze"}
{"longitude": "-1.3419", "police-force": "cleveland", "police-force-neighbourhood": "cleveland-Grangefield", "latitude": "54.5634", "name": "Grangefield"}
{"longitude": "-1.14909", "police-force": "cleveland", "police-force-neighbourhood": "cleveland-Grangetown", "latitude": "54.5779", "name": "Grangetown"}
{"longitude": "-1.07736", "police-force": "cleveland", "police-force-neighbourhood": "cleveland-Guisborough", "latitude": "54.5524", "name": "Guisborough"}
{"longitude": "-1.35363", "police-force": "cleveland", "police-force-neighbourhood": "cleveland-Hardwick", "latitude": "54.5862", "name": "Hardwick"}
{"longitude": "-1.2721", "police-force": "cleveland", "police-force-neighbourhood": "cleveland-Hart", "latitude": "54.7087", "name": "Hart"}
{"longitude": "-1.35944", "police-force": "cleveland", "police-force-neighbourhood": "cleveland-Hartburn", "latitude": "54.5592", "name": "Hartburn"}
{"longitude": "-1.19381", "police-force": "cleveland", "police-force-neighbourhood": "cleveland-Headland and Harbour", "latitude": "54.6894", "name": "Headland and Harbour"}
{"longitude": "-1.24066", "police-force": "cleveland", "police-force-neighbourhood": "cleveland-Hemlington", "latitude": "54.5242", "name": "Hemlington"}
{"longitude": "-1.11058", "police-force": "cleveland", "police-force-neighbourhood": "cleveland-Hutton", "latitude": "54.5171", "name": "Hutton"}
{"longitude": "-1.27887", "police-force": "cleveland", "police-force-neighbourhood": "cleveland-Ingleby Barwick East", "latitude": "54.5109", "name": "Ingleby Barwick East"}
{"longitude": "-1.32219", "police-force": "cleveland", "police-force-neighbourhood": "cleveland-Ingleby Barwick West", "latitude": "54.5192", "name": "Ingleby Barwick West"}
{"longitude": "-1.22994", "police-force": "cleveland", "police-force-neighbourhood": "cleveland-Jesmond", "latitude": "54.6963", "name": "Jesmond"}
{"longitude": "-1.25083", "police-force": "cleveland", "police-force-neighbourhood": "cleveland-Kader", "latitude": "54.5373", "name": "Kader"}
{"longitude": "-1.07152", "police-force": "cleveland", "police-force-neighbourhood": "cleveland-Kirkleatham", "latitude": "54.5975", "name": "Kirkleatham"}
{"longitude": "-1.22154", "police-force": "cleveland", "police-force-neighbourhood": "cleveland-Ladgate", "latitude": "54.54", "name": "Ladgate"}
{"longitude": "-1.25363", "police-force": "cleveland", "police-force-neighbourhood": "cleveland-Linthorpe", "latitude": "54.5577", "name": "Linthorpe"}
{"longitude": "-0.941205", "police-force": "cleveland", "police-force-neighbourhood": "cleveland-Lockwood", "latitude": "54.5256", "name": "Lockwood"}
{"longitude": "-0.854177", "police-force": "cleveland", "police-force-neighbourhood": "cleveland-Loftus", "latitude": "54.5311", "name": "Loftus"}
{"longitude": "-1.03646", "police-force": "cleveland", "police-force-neighbourhood": "cleveland-Longbeck", "latitude": "54.5862", "name": "Longbeck"}
{"longitude": "-1.22297", "police-force": "cleveland", "police-force-neighbourhood": "cleveland-Longlands and Beechwood", "latitude": "54.5539", "name": "Longlands and Beechwood"}
{"longitude": "-1.2909", "police-force": "cleveland", "police-force-neighbourhood": "cleveland-Mandale and Victoria", "latitude": "54.5535", "name": "Mandale and Victoria"}
{"longitude": "-1.24428", "police-force": "cleveland", "police-force-neighbourhood": "cleveland-Manor House", "latitude": "54.6663", "name": "Manor House"}
{"longitude": "-1.19881", "police-force": "cleveland", "police-force-neighbourhood": "cleveland-Marton East", "latitude": "54.539", "name": "Marton East"}
{"longitude": "-1.19772", "police-force": "cleveland", "police-force-neighbourhood": "cleveland-Marton West", "latitude": "54.5197", "name": "Marton West"}
{"longitude": "-1.07207", "police-force": "cleveland", "police-force-neighbourhood": "cleveland-Newcomen", "latitude": "54.6095", "name": "Newcomen"}
{"longitude": "-1.26035", "police-force": "cleveland", "police-force-neighbourhood": "cleveland-Newport", "latitude": "54.569", "name": "Newport"}
{"longitude": "-1.32682", "police-force": "cleveland", "police-force-neighbourhood": "cleveland-Newtown", "latitude": "54.5745", "name": "Newtown"}
{"longitude": "-1.16192", "police-force": "cleveland", "police-force-neighbourhood": "cleveland-Normanby", "latitude": "54.5497", "name": "Normanby"}
{"longitude": "-1.20951", "police-force": "cleveland", "police-force-neighbourhood": "cleveland-North Ormesby", "latitude": "54.5705", "name": "North Ormesby"}
{"longitude": "-1.35271", "police-force": "cleveland", "police-force-neighbourhood": "cleveland-Northern Parishes", "latitude": "54.6194", "name": "Northern Parishes"}
{"longitude": "-1.31375", "police-force": "cleveland", "police-force-neighbourhood": "cleveland-Norton North", "latitude": "54.5872", "name": "Norton North"}
{"longitude": "-1.28931", "police-force": "cleveland", "police-force-neighbourhood": "cleveland-Norton South", "latitude": "54.5796", "name": "Norton South"}
{"longitude": "-1.32259", "police-force": "cleveland", "police-force-neighbourhood": "cleveland-Norton West", "latitude": "54.5942", "name": "Norton West"}
{"longitude": "-1.16637", "police-force": "cleveland", "police-force-neighbourhood": "cleveland-Nunthorpe", "latitude": "54.5173", "name": "Nunthorpe"}
{"longitude": "-1.17968", "police-force": "cleveland", "police-force-neighbourhood": "cleveland-Ormesby", "latitude": "54.5383", "name": "Ormesby"}
{"longitude": "-1.24089", "police-force": "cleveland", "police-force-neighbourhood": "cleveland-Park - Middlesbrough", "latitude": "54.5597", "name": "Park"}
{"longitude": "-1.18655", "police-force": "cleveland", "police-force-neighbourhood": "cleveland-Park End and Beckfield", "latitude": "54.5519", "name": "Park End and Beckfield"}
{"longitude": "-1.32418", "police-force": "cleveland", "police-force-neighbourhood": "cleveland-Parkfield and Oxbridge", "latitude": "54.5493", "name": "Parkfield and Oxbridge"}
{"longitude": "-1.34121", "police-force": "cleveland", "police-force-neighbourhood": "cleveland-Roseworth", "latitude": "54.5862", "name": "Roseworth"}
{"longitude": "-1.29706", "police-force": "cleveland", "police-force-neighbourhood": "cleveland-Rural West", "latitude": "54.6599", "name": "Rural West"}
{"longitude": "-0.967296", "police-force": "cleveland", "police-force-neighbourhood": "cleveland-Saltburn", "latitude": "54.5806", "name": "Saltburn"}
{"longitude": "-1.19081", "police-force": "cleveland", "police-force-neighbourhood": "cleveland-Seaton", "latitude": "54.6507", "name": "Seaton"}
{"longitude": "-0.984754", "police-force": "cleveland", "police-force-neighbourhood": "cleveland-Skelton", "latitude": "54.558", "name": "Skelton"}
{"longitude": "-1.17676", "police-force": "cleveland", "police-force-neighbourhood": "cleveland-South Bank", "latitude": "54.5716", "name": "South Bank"}
{"longitude": "-1.00728", "police-force": "cleveland", "police-force-neighbourhood": "cleveland-St Germains", "latitude": "54.5871", "name": "St Germains"}
{"longitude": "-1.28837", "police-force": "cleveland", "police-force-neighbourhood": "cleveland-Stainsby Hill", "latitude": "54.5309", "name": "Stainsby Hill"}
{"longitude": "-1.25167", "police-force": "cleveland", "police-force-neighbourhood": "cleveland-Stainton and Thornton", "latitude": "54.5197", "name": "Stainton and Thornton"}
{"longitude": "-1.29541", "police-force": "cleveland", "police-force-neighbourhood": "cleveland-Stockton Town Centre", "latitude": "54.5659", "name": "Stockton Town Centre"}
{"longitude": "-1.15249", "police-force": "cleveland", "police-force-neighbourhood": "cleveland-Teesville", "latitude": "54.5637", "name": "Teesville"}
{"longitude": "-1.26771", "police-force": "cleveland", "police-force-neighbourhood": "cleveland-Trimdon", "latitude": "54.5381", "name": "Trimdon"}
{"longitude": "-1.2231", "police-force": "cleveland", "police-force-neighbourhood": "cleveland-Victoria", "latitude": "54.6882", "name": "Victoria"}
{"longitude": "-1.30472", "police-force": "cleveland", "police-force-neighbourhood": "cleveland-Village", "latitude": "54.5332", "name": "Village"}
{"longitude": "-1.0539", "police-force": "cleveland", "police-force-neighbourhood": "cleveland-West Dyke", "latitude": "54.6039", "name": "West Dyke"}
{"longitude": "-1.40282", "police-force": "cleveland", "police-force-neighbourhood": "cleveland-Western Parishes", "latitude": "54.5666", "name": "Western Parishes"}
{"longitude": "-1.01828", "police-force": "cleveland", "police-force-neighbourhood": "cleveland-Westworth", "latitude": "54.5217", "name": "Westworth"}
{"longitude": "-1.33374", "police-force": "cleveland", "police-force-neighbourhood": "cleveland-Yarm", "latitude": "54.4883", "name": "Yarm"}
{"longitude": "-1.04677", "police-force": "cleveland", "police-force-neighbourhood": "cleveland-Zetland", "latitude": "54.612", "name": "Zetland"}
{"longitude": "-3.2218", "police-force": "cumbria", "police-force-neighbourhood": "cumbria-GARS01", "latitude": "54.1094", "name": "Barrow Central"}
{"longitude": "-3.20622", "police-force": "cumbria", "police-force-neighbourhood": "cumbria-GARS02", "latitude": "54.1256", "name": "Barrow East"}
{"longitude": "-3.22004", "police-force": "cumbria", "police-force-neighbourhood": "cumbria-GARS03", "latitude": "54.1399", "name": "Barrow West"}
{"longitude": "-3.22461", "police-force": "cumbria", "police-force-neighbourhood": "cumbria-GARS04", "latitude": "54.1349", "name": "Dalton/Askam and Roose"}
{"longitude": "-3.23473", "police-force": "cumbria", "police-force-neighbourhood": "cumbria-GARS05", "latitude": "54.098", "name": "Walney Island"}
{"longitude": "-3.01498", "police-force": "cumbria", "police-force-neighbourhood": "cumbria-GARS06", "latitude": "54.384", "name": "Central Lakes"}
{"longitude": "-2.96791", "police-force": "cumbria", "police-force-neighbourhood": "cumbria-GARS07", "latitude": "54.2263", "name": "Grange and Cartmel"}
{"longitude": "-3.10573", "police-force": "cumbria", "police-force-neighbourhood": "cumbria-GARS08", "latitude": "54.2965", "name": "High Furness"}
{"longitude": "-3.1002", "police-force": "cumbria", "police-force-neighbourhood": "cumbria-GARS09", "latitude": "54.1358", "name": "Ulverston &amp; Low Furness"}
{"longitude": "-3.44327", "police-force": "cumbria", "police-force-neighbourhood": "cumbria-GARU01", "latitude": "54.7192", "name": "Dearham, Flimby and Maryport"}
{"longitude": "-3.5279", "police-force": "cumbria", "police-force-neighbourhood": "cumbria-GARU02", "latitude": "54.6204", "name": "South Workington"}
{"longitude": "-3.5169", "police-force": "cumbria", "police-force-neighbourhood": "cumbria-GARU03", "latitude": "54.6516", "name": "Workington Town"}
{"longitude": "-3.13349", "police-force": "cumbria", "police-force-neighbourhood": "cumbria-GARU07", "latitude": "54.5923", "name": "Keswick"}
{"longitude": "-3.34999", "police-force": "cumbria", "police-force-neighbourhood": "cumbria-GARU08", "latitude": "54.6314", "name": "Cockermouth"}
{"longitude": "-3.11473", "police-force": "cumbria", "police-force-neighbourhood": "cumbria-GARU09", "latitude": "54.7736", "name": "Wigton"}
{"longitude": "-3.26455", "police-force": "cumbria", "police-force-neighbourhood": "cumbria-GARU10", "latitude": "54.8636", "name": "Silloth"}
{"longitude": "-3.2625", "police-force": "cumbria", "police-force-neighbourhood": "cumbria-GARU11", "latitude": "54.7422", "name": "Aspatria"}
{"longitude": "-3.38591", "police-force": "cumbria", "police-force-neighbourhood": "cumbria-GARV01", "latitude": "54.525", "name": "Cleator Moor"}
{"longitude": "-3.5224", "police-force": "cumbria", "police-force-neighbourhood": "cumbria-GARV02", "latitude": "54.4666", "name": "Egremont"}
{"longitude": "-3.53954", "police-force": "cumbria", "police-force-neighbourhood": "cumbria-GARV03", "latitude": "54.566", "name": "North Whitehaven"}
{"longitude": "-3.30975", "police-force": "cumbria", "police-force-neighbourhood": "cumbria-GARV04", "latitude": "54.3326", "name": "South Copeland"}
{"longitude": "-3.59755", "police-force": "cumbria", "police-force-neighbourhood": "cumbria-GARV05", "latitude": "54.5253", "name": "South Whitehaven"}
{"longitude": "-2.94792", "police-force": "cumbria", "police-force-neighbourhood": "cumbria-GARX01", "latitude": "54.9188", "name": "Belah and Lowry Hill"}
{"longitude": "-2.90244", "police-force": "cumbria", "police-force-neighbourhood": "cumbria-GARX02", "latitude": "54.8945", "name": "Botcherby and Durranhill"}
{"longitude": "-2.93233", "police-force": "cumbria", "police-force-neighbourhood": "cumbria-GARX03", "latitude": "54.8915", "name": "Carlisle City Centre"}
{"longitude": "-2.9023", "police-force": "cumbria", "police-force-neighbourhood": "cumbria-GARX04", "latitude": "54.8758", "name": "Harraby"}
{"longitude": "-2.92266", "police-force": "cumbria", "police-force-neighbourhood": "cumbria-GARX05", "latitude": "54.8948", "name": "St. Aidans"}
{"longitude": "-2.9408", "police-force": "cumbria", "police-force-neighbourhood": "cumbria-GARX06", "latitude": "54.9059", "name": "Stanwix"}
{"longitude": "-2.97184", "police-force": "cumbria", "police-force-neighbourhood": "cumbria-GARX07", "latitude": "54.8878", "name": "Belle Vue / Morton / Yewdale"}
{"longitude": "-2.92744", "police-force": "cumbria", "police-force-neighbourhood": "cumbria-GARX08", "latitude": "54.8793", "name": "Currock and Upperby"}
{"longitude": "-2.94937", "police-force": "cumbria", "police-force-neighbourhood": "cumbria-GARX09", "latitude": "54.8831", "name": "Denton Holme / Dow Beck / Longsowerby"}
{"longitude": "-2.95396", "police-force": "cumbria", "police-force-neighbourhood": "cumbria-GARX10", "latitude": "54.8969", "name": "Raffles / Newtown / Willowholme"}
{"longitude": "-2.43004", "police-force": "cumbria", "police-force-neighbourhood": "cumbria-GARY01", "latitude": "54.7761", "name": "Alston Moor"}
{"longitude": "-2.65735", "police-force": "cumbria", "police-force-neighbourhood": "cumbria-GARY02", "latitude": "54.9588", "name": "Brampton"}
{"longitude": "-2.93969", "police-force": "cumbria", "police-force-neighbourhood": "cumbria-GARY03", "latitude": "54.8621", "name": "Dalston"}
{"longitude": "-2.8827", "police-force": "cumbria", "police-force-neighbourhood": "cumbria-GARY04", "latitude": "55.0442", "name": "Longtown"}
{"longitude": "-2.51266", "police-force": "cumbria", "police-force-neighbourhood": "cumbria-GARY05", "latitude": "54.5853", "name": "Appleby"}
{"longitude": "-2.81397", "police-force": "cumbria", "police-force-neighbourhood": "cumbria-GARY06", "latitude": "54.5802", "name": "Lakes and Shap"}
{"longitude": "-2.73322", "police-force": "cumbria", "police-force-neighbourhood": "cumbria-GARY07", "latitude": "54.7509", "name": "Penrith Rural"}
{"longitude": "-2.75201", "police-force": "cumbria", "police-force-neighbourhood": "cumbria-GARY08", "latitude": "54.6861", "name": "Penrith Town"}
{"longitude": "-2.42659", "police-force": "cumbria", "police-force-neighbourhood": "cumbria-GARY09", "latitude": "54.4834", "name": "Upper Eden"}
{"longitude": "-2.72488", "police-force": "cumbria", "police-force-neighbourhood": "cumbria-GARZ01", "latitude": "54.3222", "name": "Kendal Town"}
{"longitude": "-2.75111", "police-force": "cumbria", "police-force-neighbourhood": "cumbria-GARZ02", "latitude": "54.3299", "name": "Kendal Rural West"}
{"longitude": "-2.47958", "police-force": "cumbria", "police-force-neighbourhood": "cumbria-GARZ03", "latitude": "54.2943", "name": "Kendal Rural East"}
{"longitude": "-1.89215", "police-force": "derbyshire", "police-force-neighbourhood": "derbyshire-BH01", "latitude": "53.4919", "name": "Hadfield and Tintwistle"}
{"longitude": "-1.9528", "police-force": "derbyshire", "police-force-neighbourhood": "derbyshire-BH02", "latitude": "53.4447", "name": "Glossop Town Centre"}
{"longitude": "-1.91365", "police-force": "derbyshire", "police-force-neighbourhood": "derbyshire-BH03", "latitude": "53.4521", "name": "Gamesley and St Johns"}
{"longitude": "-1.94583", "police-force": "derbyshire", "police-force-neighbourhood": "derbyshire-BH04", "latitude": "53.3853", "name": "New Mills and Hayfield"}
{"longitude": "-1.69654", "police-force": "derbyshire", "police-force-neighbourhood": "derbyshire-BS01", "latitude": "53.3243", "name": "Hathersage"}
{"longitude": "-1.67013", "police-force": "derbyshire", "police-force-neighbourhood": "derbyshire-BS02", "latitude": "53.2536", "name": "Tideswell, Litton, Baslow and Beeley"}
{"longitude": "-1.70376", "police-force": "derbyshire", "police-force-neighbourhood": "derbyshire-BS03", "latitude": "53.2108", "name": "Bakewell, Sheldon Over Haddon and Ashford"}
{"longitude": "-1.75014", "police-force": "derbyshire", "police-force-neighbourhood": "derbyshire-BS04", "latitude": "53.1839", "name": "Stanton and Youlgreave and White Peak Villages"}
{"longitude": "-1.62804", "police-force": "derbyshire", "police-force-neighbourhood": "derbyshire-BS05", "latitude": "53.161", "name": "Darley Dale, Winster, Wensley and Elton"}
{"longitude": "-1.5394", "police-force": "derbyshire", "police-force-neighbourhood": "derbyshire-BS06", "latitude": "53.1419", "name": "Matlock"}
{"longitude": "-1.58002", "police-force": "derbyshire", "police-force-neighbourhood": "derbyshire-BS07", "latitude": "53.1144", "name": "Matlock Bath, Cromford and Bonsall"}
{"longitude": "-1.56208", "police-force": "derbyshire", "police-force-neighbourhood": "derbyshire-BS08", "latitude": "53.0864", "name": "Wirksworth and Middleton"}
{"longitude": "-1.63872", "police-force": "derbyshire", "police-force-neighbourhood": "derbyshire-BS09", "latitude": "52.9894", "name": "Hulland and Brailsford"}
{"longitude": "-1.69583", "police-force": "derbyshire", "police-force-neighbourhood": "derbyshire-BS10", "latitude": "53.0821", "name": "Tissington and Carsington"}
{"longitude": "-1.72178", "police-force": "derbyshire", "police-force-neighbourhood": "derbyshire-BS11", "latitude": "53.0215", "name": "Ashbourne"}
{"longitude": "-1.7447", "police-force": "derbyshire", "police-force-neighbourhood": "derbyshire-BS12", "latitude": "52.9489", "name": "Marston and Clifton"}
{"longitude": "-1.78177", "police-force": "derbyshire", "police-force-neighbourhood": "derbyshire-BX01", "latitude": "53.385", "name": "Hope Valley"}
{"longitude": "-1.91635", "police-force": "derbyshire", "police-force-neighbourhood": "derbyshire-BX02", "latitude": "53.3227", "name": "Chapel and Chinley"}
{"longitude": "-1.98716", "police-force": "derbyshire", "police-force-neighbourhood": "derbyshire-BX03", "latitude": "53.3276", "name": "Whaley Bridge"}
{"longitude": "-1.91857", "police-force": "derbyshire", "police-force-neighbourhood": "derbyshire-BX04", "latitude": "53.2568", "name": "Buxton Rural West"}
{"longitude": "-1.89828", "police-force": "derbyshire", "police-force-neighbourhood": "derbyshire-BX05", "latitude": "53.2576", "name": "Buxton Town"}
{"longitude": "-1.88965", "police-force": "derbyshire", "police-force-neighbourhood": "derbyshire-BX06", "latitude": "53.2637", "name": "Fairfield"}
{"longitude": "-1.85289", "police-force": "derbyshire", "police-force-neighbourhood": "derbyshire-BX07", "latitude": "53.2813", "name": "Buxton Rural East"}
{"longitude": "-1.28894", "police-force": "derbyshire", "police-force-neighbourhood": "derbyshire-CB01", "latitude": "53.2916", "name": "Barlborough"}
{"longitude": "-1.21644", "police-force": "derbyshire", "police-force-neighbourhood": "derbyshire-CB02", "latitude": "53.2908", "name": "Whitwell"}
{"longitude": "-1.27313", "police-force": "derbyshire", "police-force-neighbourhood": "derbyshire-CB03", "latitude": "53.2746", "name": "Clowne"}
{"longitude": "-1.22", "police-force": "derbyshire", "police-force-neighbourhood": "derbyshire-CB04", "latitude": "53.2701", "name": "Creswell"}
{"longitude": "-1.2758", "police-force": "derbyshire", "police-force-neighbourhood": "derbyshire-CB05", "latitude": "53.2439", "name": "Bolsover and Shuttlewood"}
{"longitude": "-1.25817", "police-force": "derbyshire", "police-force-neighbourhood": "derbyshire-CB06", "latitude": "53.2181", "name": "Scarcliffe"}
{"longitude": "-1.21793", "police-force": "derbyshire", "police-force-neighbourhood": "derbyshire-CB07", "latitude": "53.1985", "name": "Shirebrook"}
{"longitude": "-1.25931", "police-force": "derbyshire", "police-force-neighbourhood": "derbyshire-CB08", "latitude": "53.1821", "name": "Pleasley"}
{"longitude": "-1.31864", "police-force": "derbyshire", "police-force-neighbourhood": "derbyshire-CB09", "latitude": "53.155", "name": "Tibshelf"}
{"longitude": "-1.41006", "police-force": "derbyshire", "police-force-neighbourhood": "derbyshire-CT01", "latitude": "53.2762", "name": "Whittington and Barrow Hill"}
{"longitude": "-1.32897", "police-force": "derbyshire", "police-force-neighbourhood": "derbyshire-CT02", "latitude": "53.2736", "name": "Staveley"}
{"longitude": "-1.35118", "police-force": "derbyshire", "police-force-neighbourhood": "derbyshire-CT03", "latitude": "53.26", "name": "Middlecroft and Poolsbrook"}
{"longitude": "-1.35378", "police-force": "derbyshire", "police-force-neighbourhood": "derbyshire-CT04", "latitude": "53.2519", "name": "Hollingwood, Inkersall and Duckmanton"}
{"longitude": "-1.39968", "police-force": "derbyshire", "police-force-neighbourhood": "derbyshire-CT05", "latitude": "53.2546", "name": "Brimington"}
{"longitude": "-1.44943", "police-force": "derbyshire", "police-force-neighbourhood": "derbyshire-CT06", "latitude": "53.2559", "name": "Dunston, Moor and St Helen's"}
{"longitude": "-1.45404", "police-force": "derbyshire", "police-force-neighbourhood": "derbyshire-CT07", "latitude": "53.2463", "name": "Newbold and Brockwell"}
{"longitude": "-1.46117", "police-force": "derbyshire", "police-force-neighbourhood": "derbyshire-CT08", "latitude": "53.231", "name": "Walton and West"}
{"longitude": "-1.44208", "police-force": "derbyshire", "police-force-neighbourhood": "derbyshire-CT09", "latitude": "53.2263", "name": "Holmebrook and Rother"}
{"longitude": "-1.41356", "police-force": "derbyshire", "police-force-neighbourhood": "derbyshire-CT10", "latitude": "53.2268", "name": "Hasland and St Leonard's"}
{"longitude": "-1.42433", "police-force": "derbyshire", "police-force-neighbourhood": "derbyshire-CT11", "latitude": "53.2357", "name": "Chesterfield Town Centre"}
{"longitude": "-1.54671", "police-force": "derbyshire", "police-force-neighbourhood": "derbyshire-CV01", "latitude": "52.9755", "name": "Quarndon and Kirk Langley"}
{"longitude": "-1.53101", "police-force": "derbyshire", "police-force-neighbourhood": "derbyshire-CV02", "latitude": "53.0491", "name": "Duffield, Belper Rural and Holloway"}
{"longitude": "-1.4559", "police-force": "derbyshire", "police-force-neighbourhood": "derbyshire-CV03", "latitude": "53.0906", "name": "Alfreton Rural"}
{"longitude": "-1.38504", "police-force": "derbyshire", "police-force-neighbourhood": "derbyshire-CV04", "latitude": "53.0987", "name": "Alfreton Town"}
{"longitude": "-1.33713", "police-force": "derbyshire", "police-force-neighbourhood": "derbyshire-CV05", "latitude": "53.0986", "name": "South Normanton and Pinxton"}
{"longitude": "-1.37017", "police-force": "derbyshire", "police-force-neighbourhood": "derbyshire-CV06", "latitude": "53.0701", "name": "Somercotes and Riddings"}
{"longitude": "-1.35941", "police-force": "derbyshire", "police-force-neighbourhood": "derbyshire-CV07", "latitude": "53.0284", "name": "Codnor, Waingroves and Langley Mill"}
{"longitude": "-1.39963", "police-force": "derbyshire", "police-force-neighbourhood": "derbyshire-CV08", "latitude": "53.0475", "name": "Ripley Town Centre"}
{"longitude": "-1.45045", "police-force": "derbyshire", "police-force-neighbourhood": "derbyshire-CV09", "latitude": "53.0489", "name": "Heage"}
{"longitude": "-1.47847", "police-force": "derbyshire", "police-force-neighbourhood": "derbyshire-CV10", "latitude": "53.031", "name": "Belper Town"}
{"longitude": "-1.43792", "police-force": "derbyshire", "police-force-neighbourhood": "derbyshire-CV11", "latitude": "53.007", "name": "Kilburn"}
{"longitude": "-1.37984", "police-force": "derbyshire", "police-force-neighbourhood": "derbyshire-CV12", "latitude": "52.996", "name": "Shipley, Smalley and Horsley"}
{"longitude": "-1.35463", "police-force": "derbyshire", "police-force-neighbourhood": "derbyshire-CV13", "latitude": "53.0171", "name": "Heanor and Loscoe"}
{"longitude": "-1.31262", "police-force": "derbyshire", "police-force-neighbourhood": "derbyshire-CX01", "latitude": "53.3209", "name": "Killamarsh"}
{"longitude": "-1.38619", "police-force": "derbyshire", "police-force-neighbourhood": "derbyshire-CX02", "latitude": "53.3117", "name": "Eckington"}
{"longitude": "-1.48352", "police-force": "derbyshire", "police-force-neighbourhood": "derbyshire-CX03", "latitude": "53.3025", "name": "Dronfield"}
{"longitude": "-1.48818", "police-force": "derbyshire", "police-force-neighbourhood": "derbyshire-CX04", "latitude": "53.2856", "name": "Unstone and Rural"}
{"longitude": "-1.48232", "police-force": "derbyshire", "police-force-neighbourhood": "derbyshire-CX05", "latitude": "53.1916", "name": "Wingerworth and Rural"}
{"longitude": "-1.42221", "police-force": "derbyshire", "police-force-neighbourhood": "derbyshire-CX06", "latitude": "53.1713", "name": "Clay Cross"}
{"longitude": "-1.41158", "police-force": "derbyshire", "police-force-neighbourhood": "derbyshire-CX07", "latitude": "53.1513", "name": "North Wingfield, Pilsley, Stonebroom and Shirland"}
{"longitude": "-1.36572", "police-force": "derbyshire", "police-force-neighbourhood": "derbyshire-CX08", "latitude": "53.2144", "name": "Holmewood, Grassmoor, Calow and Arkwright"}
{"longitude": "-1.43332", "police-force": "derbyshire", "police-force-neighbourhood": "derbyshire-DE01", "latitude": "52.903", "name": "Alvaston"}
{"longitude": "-1.47753", "police-force": "derbyshire", "police-force-neighbourhood": "derbyshire-DE02", "latitude": "52.8883", "name": "Sinfin and Osmaston"}
{"longitude": "-1.43352", "police-force": "derbyshire", "police-force-neighbourhood": "derbyshire-DE03", "latitude": "52.8876", "name": "Boulton"}
{"longitude": "-1.44182", "police-force": "derbyshire", "police-force-neighbourhood": "derbyshire-DE04", "latitude": "52.8732", "name": "Chellaston"}
{"longitude": "-1.40257", "police-force": "derbyshire", "police-force-neighbourhood": "derbyshire-DK01", "latitude": "52.9551", "name": "Ilkeston Rural"}
{"longitude": "-1.31384", "police-force": "derbyshire", "police-force-neighbourhood": "derbyshire-DK02", "latitude": "52.988", "name": "Cotmanhay &amp; Shipley View"}
{"longitude": "-1.3174", "police-force": "derbyshire", "police-force-neighbourhood": "derbyshire-DK03", "latitude": "52.97", "name": "Ilkeston Town"}
{"longitude": "-1.29871", "police-force": "derbyshire", "police-force-neighbourhood": "derbyshire-DK04", "latitude": "52.9729", "name": "Larklands and Gallows"}
{"longitude": "-1.3108", "police-force": "derbyshire", "police-force-neighbourhood": "derbyshire-DK05", "latitude": "52.9561", "name": "Kirk Hallam &amp; Hallam Fields"}
{"longitude": "-1.36827", "police-force": "derbyshire", "police-force-neighbourhood": "derbyshire-DL01", "latitude": "52.9188", "name": "Borrowash and Ockbrook"}
{"longitude": "-1.32482", "police-force": "derbyshire", "police-force-neighbourhood": "derbyshire-DL02", "latitude": "52.9126", "name": "Long Eaton Rural"}
{"longitude": "-1.30053", "police-force": "derbyshire", "police-force-neighbourhood": "derbyshire-DL03", "latitude": "52.9235", "name": "Sandiacre"}
{"longitude": "-1.28595", "police-force": "derbyshire", "police-force-neighbourhood": "derbyshire-DL04", "latitude": "52.9055", "name": "Long Eaton North"}
{"longitude": "-1.28661", "police-force": "derbyshire", "police-force-neighbourhood": "derbyshire-DL05", "latitude": "52.8861", "name": "Long Eaton South"}
{"longitude": "-1.25742", "police-force": "derbyshire", "police-force-neighbourhood": "derbyshire-DL06", "latitude": "52.8893", "name": "Long Eaton Town"}
{"longitude": "-1.51282", "police-force": "derbyshire", "police-force-neighbourhood": "derbyshire-DN01", "latitude": "52.9267", "name": "Mackworth &amp; Morley"}
{"longitude": "-1.49204", "police-force": "derbyshire", "police-force-neighbourhood": "derbyshire-DN02", "latitude": "52.9459", "name": "Allestree and Darley"}
{"longitude": "-1.47398", "police-force": "derbyshire", "police-force-neighbourhood": "derbyshire-DN03", "latitude": "52.9188", "name": "Derby City"}
{"longitude": "-1.43903", "police-force": "derbyshire", "police-force-neighbourhood": "derbyshire-DN04", "latitude": "52.9344", "name": "Derwent and Oakwood"}
{"longitude": "-1.41555", "police-force": "derbyshire", "police-force-neighbourhood": "derbyshire-DN05", "latitude": "52.9192", "name": "Chaddesden and Spondon"}
{"longitude": "-1.64428", "police-force": "derbyshire", "police-force-neighbourhood": "derbyshire-DS01", "latitude": "52.8897", "name": "Etwall, Hatton and Hilton"}
{"longitude": "-1.52767", "police-force": "derbyshire", "police-force-neighbourhood": "derbyshire-DS02", "latitude": "52.825", "name": "Mercia"}
{"longitude": "-1.41375", "police-force": "derbyshire", "police-force-neighbourhood": "derbyshire-DS03", "latitude": "52.8512", "name": "Melbourne"}
{"longitude": "-1.5407", "police-force": "derbyshire", "police-force-neighbourhood": "derbyshire-DS04", "latitude": "52.7759", "name": "Gresley, Woodville and Swadlincote"}
{"longitude": "-1.57561", "police-force": "derbyshire", "police-force-neighbourhood": "derbyshire-DS05", "latitude": "52.7816", "name": "Newhall and Midway"}
{"longitude": "-1.6246", "police-force": "derbyshire", "police-force-neighbourhood": "derbyshire-DS06", "latitude": "52.7416", "name": "Linton, Overseal and Lullington"}
{"longitude": "-1.53561", "police-force": "derbyshire", "police-force-neighbourhood": "derbyshire-DW01", "latitude": "52.9125", "name": "Mickleover"}
{"longitude": "-1.51879", "police-force": "derbyshire", "police-force-neighbourhood": "derbyshire-DW02", "latitude": "52.9015", "name": "Littleover and Blagreaves"}
{"longitude": "-1.49781", "police-force": "derbyshire", "police-force-neighbourhood": "derbyshire-DW03", "latitude": "52.9138", "name": "Abbey"}
{"longitude": "-1.47667", "police-force": "derbyshire", "police-force-neighbourhood": "derbyshire-DW04", "latitude": "52.9085", "name": "Rose Hill"}
{"longitude": "-1.48237", "police-force": "derbyshire", "police-force-neighbourhood": "derbyshire-DW05", "latitude": "52.8992", "name": "Normanton"}
{"longitude": "-5.28994", "police-force": "devon-and-cornwall", "police-force-neighbourhood": "devon-and-cornwall-CIOS.4001", "latitude": "50.2218", "name": "Camborne North"}
{"longitude": "-5.28185", "police-force": "devon-and-cornwall", "police-force-neighbourhood": "devon-and-cornwall-CIOS.4002", "latitude": "50.1979", "name": "Camborne South"}
{"longitude": "-5.3396", "police-force": "devon-and-cornwall", "police-force-neighbourhood": "devon-and-cornwall-CIOS.4003", "latitude": "50.2173", "name": "Camborne West"}
{"longitude": "-5.28092", "police-force": "devon-and-cornwall", "police-force-neighbourhood": "devon-and-cornwall-CIOS.4004", "latitude": "50.2553", "name": "Illogan North"}
{"longitude": "-5.25665", "police-force": "devon-and-cornwall", "police-force-neighbourhood": "devon-and-cornwall-CIOS.4005", "latitude": "50.2167", "name": "Illogan South"}
{"longitude": "-5.22917", "police-force": "devon-and-cornwall", "police-force-neighbourhood": "devon-and-cornwall-CIOS.4006", "latitude": "50.248", "name": "Redruth North"}
{"longitude": "-5.20685", "police-force": "devon-and-cornwall", "police-force-neighbourhood": "devon-and-cornwall-CIOS.4007", "latitude": "50.2283", "name": "Redruth South, St Day &amp; Lanner"}
{"longitude": "-5.26879", "police-force": "devon-and-cornwall", "police-force-neighbourhood": "devon-and-cornwall-CIOS.4008", "latitude": "50.0966", "name": "Helston Town"}
{"longitude": "-5.17654", "police-force": "devon-and-cornwall", "police-force-neighbourhood": "devon-and-cornwall-CIOS.4009", "latitude": "50.0261", "name": "Lizard"}
{"longitude": "-5.29931", "police-force": "devon-and-cornwall", "police-force-neighbourhood": "devon-and-cornwall-CIOS.4010", "latitude": "50.1378", "name": "Porthleven &amp; Helston North"}
{"longitude": "-5.52648", "police-force": "devon-and-cornwall", "police-force-neighbourhood": "devon-and-cornwall-CIOS.4011", "latitude": "50.1355", "name": "Penzance Rural East"}
{"longitude": "-5.6142", "police-force": "devon-and-cornwall", "police-force-neighbourhood": "devon-and-cornwall-CIOS.4012", "latitude": "50.0894", "name": "Penzance Rural West"}
{"longitude": "-5.53174", "police-force": "devon-and-cornwall", "police-force-neighbourhood": "devon-and-cornwall-CIOS.4013", "latitude": "50.1242", "name": "Penzance Town East"}
{"longitude": "-5.54253", "police-force": "devon-and-cornwall", "police-force-neighbourhood": "devon-and-cornwall-CIOS.4014", "latitude": "50.1177", "name": "Penzance Town West"}
{"longitude": "-5.65864", "police-force": "devon-and-cornwall", "police-force-neighbourhood": "devon-and-cornwall-CIOS.4015", "latitude": "50.1142", "name": "St Just, Pendeen &amp; Sennen"}
{"longitude": "-5.46684", "police-force": "devon-and-cornwall", "police-force-neighbourhood": "devon-and-cornwall-CIOS.4016", "latitude": "50.1806", "name": "Carbis Bay"}
{"longitude": "-5.37655", "police-force": "devon-and-cornwall", "police-force-neighbourhood": "devon-and-cornwall-CIOS.4017", "latitude": "50.2014", "name": "Copperhouse &amp; Gwinear"}
{"longitude": "-5.41982", "police-force": "devon-and-cornwall", "police-force-neighbourhood": "devon-and-cornwall-CIOS.4018", "latitude": "50.153", "name": "Hayle Foundry"}
{"longitude": "-6.32284", "police-force": "devon-and-cornwall", "police-force-neighbourhood": "devon-and-cornwall-CIOS.4019", "latitude": "49.9317", "name": "Isles of Scilly"}
{"longitude": "-5.54392", "police-force": "devon-and-cornwall", "police-force-neighbourhood": "devon-and-cornwall-CIOS.4020", "latitude": "50.1914", "name": "St Ives Town"}
{"longitude": "-5.06217", "police-force": "devon-and-cornwall", "police-force-neighbourhood": "devon-and-cornwall-CIOS.4021", "latitude": "50.1481", "name": "Arwenack"}
{"longitude": "-5.08705", "police-force": "devon-and-cornwall", "police-force-neighbourhood": "devon-and-cornwall-CIOS.4022", "latitude": "50.1442", "name": "Boslowick &amp; Trescobeas"}
{"longitude": "-5.12122", "police-force": "devon-and-cornwall", "police-force-neighbourhood": "devon-and-cornwall-CIOS.4023", "latitude": "50.2044", "name": "Penryn, Mylor, Gwennap &amp; Perranarworthal."}
{"longitude": "-5.15457", "police-force": "devon-and-cornwall", "police-force-neighbourhood": "devon-and-cornwall-CIOS.4024", "latitude": "50.1473", "name": "Stithians, Ponsanooth, Mabe, Budock, Mawnan Smith &amp; Constantine"}
{"longitude": "-5.07941", "police-force": "devon-and-cornwall", "police-force-neighbourhood": "devon-and-cornwall-CIOS.4025", "latitude": "50.1581", "name": "Penwerris"}
{"longitude": "-5.10133", "police-force": "devon-and-cornwall", "police-force-neighbourhood": "devon-and-cornwall-CIOS.4026", "latitude": "50.415", "name": "Newquay Town"}
{"longitude": "-5.07212", "police-force": "devon-and-cornwall", "police-force-neighbourhood": "devon-and-cornwall-CIOS.4027", "latitude": "50.4102", "name": "Newquay Treloggan &amp; Edgcumbe"}
{"longitude": "-4.94109", "police-force": "devon-and-cornwall", "police-force-neighbourhood": "devon-and-cornwall-CIOS.4028", "latitude": "50.4079", "name": "St Columb Major"}
{"longitude": "-5.05362", "police-force": "devon-and-cornwall", "police-force-neighbourhood": "devon-and-cornwall-CIOS.4029", "latitude": "50.4204", "name": "St Columb Minor"}
{"longitude": "-4.83252", "police-force": "devon-and-cornwall", "police-force-neighbourhood": "devon-and-cornwall-CIOS.4030", "latitude": "50.2772", "name": "Grampound &amp; Mevagissey"}
{"longitude": "-4.71741", "police-force": "devon-and-cornwall", "police-force-neighbourhood": "devon-and-cornwall-CIOS.4031", "latitude": "50.375", "name": "Lostwithiel &amp; Fowey"}
{"longitude": "-4.77321", "police-force": "devon-and-cornwall", "police-force-neighbourhood": "devon-and-cornwall-CIOS.4032", "latitude": "50.3444", "name": "St Austell Town"}
{"longitude": "-4.70622", "police-force": "devon-and-cornwall", "police-force-neighbourhood": "devon-and-cornwall-CIOS.4033", "latitude": "50.3628", "name": "St Blazey &amp; Tywardreath"}
{"longitude": "-4.86855", "police-force": "devon-and-cornwall", "police-force-neighbourhood": "devon-and-cornwall-CIOS.4034", "latitude": "50.3608", "name": "St Stephen &amp; St Dennis"}
